     3.03           OBSERVATION DATA    M                   RINEX VERSION / TYPE
GNSSToRINEXV3       Google              20210421 164654 UTC PGM / RUN BY / DATE
Google GnssLogger                                           MARKER NAME
Unknown                                                     MARKER NUMBER
Unknown             Unknown                                 OBSERVER / AGENCY
Unknown             GNSSToRINEXV3       v1.0.0.0            REC # / TYPE / VERS
Unknown             Unknown                                 ANT # / TYPE
        0.0000        0.0000        0.0000                  APPROX POSITION XYZ
        0.0000        0.0000        0.0000                  ANTENNA: DELTA H/E/N
G    8 C1C L1C D1C S1C C5X L5X D5X S5X                      SYS / # / OBS TYPES
R    4 C1C L1C D1C S1C                                      SYS / # / OBS TYPES
J    8 C5X L5X D5X S5X C1C L1C D1C S1C                      SYS / # / OBS TYPES
C    4 C2I L2I D2I S2I                                      SYS / # / OBS TYPES
E    8 C1C L1C D1C S1C C5X L5X D5X S5X                      SYS / # / OBS TYPES
  2021    04    21    16    46   54.0000000     GPS         TIME OF FIRST OBS
 11 R05  1 R06 -4 R07  5 R08  6 R09 -2 R10 -7 R15  0 R16 -1 GLONASS SLOT / FRQ #
    R17  4 R18 -3 R19  3                                    GLONASS SLOT / FRQ #
                                                            END OF HEADER
> 2021 04 21 16 46 54.4446016  0 20                      
G08                        -0.00023     -2794.95023        19.60023  23341191.317 3    310629.303 3     -2090.785 3        23.300 3
G09  24452668.55723        -0.00023     -3787.90023        21.70023                                                                
G13  22331493.61605  -4323977.06005      2661.63205        34.00005                                                                
G14  20483835.22324         0.00024       694.60024        25.50024  20481477.95505  -2148994.45905       520.32005        33.80005
G17  22620698.30424         0.00024      3261.40024        25.20024                                                                
G28  20759885.91814  -3027362.55314       752.35014        25.80014                                                                
G30  20546065.54205  -1791770.18905       383.51505        33.60005  20543714.87006  -1331631.30106       286.40806        40.00006
R18  21339531.33724         0.00024      1907.10024        25.00024
R09  21183409.31815  -4730598.36315      1726.34315        30.10015
R16  20106940.04314   1068074.55814      -748.31314        27.20014
R17  22444629.29423        -0.00023     -1513.95023        20.30023
R07  21152440.15814  -5040943.65814      1120.55014        26.50014
C25                        -0.00023     -1970.25023        19.60023
C23  22186888.42424        -0.00024      -179.45024        25.70024
C11  24014585.13623         0.00023       151.90023        23.20023
E07  25276419.68624        -0.00024     -2595.65024        26.60024  25274290.26023        -0.00023     -1935.55023        23.20023
E19                         0.00022      2033.25022        15.50022  26445744.28024         0.00024      1514.75024        23.70024
E27  23578581.67505    -15066.49505        98.15005        30.50005  23576454.94705    -57624.56905        72.49805        31.50005
J01  43627535.07323         0.00023       170.75023        20.70023                                                                
E30                                                                  24376813.27104    200502.87104     -1364.22804        29.40004
> 2021 04 21 16 46 55.4446016  0 20                      
G07  21528804.78915   2595657.54615     -1444.41915        32.00015                                                                
G09  24453413.62423        -0.00023     -3791.45023        23.10023                                                                
G13  22330987.64905  -4326636.94905      2661.45905        33.70005                                                                
G14  20483702.49824         0.00024       696.95024        24.80024  20481344.33005  -2149513.41105       520.07105        32.60005
G17  22620064.92524         0.00024      3262.45024        24.40024                                                                
G28  20759739.70124         0.00024       752.25024        24.20024                                                                
G30  20545986.48005  -1792152.09305       383.34505        33.30005  20543642.40206  -1331916.47906       286.37506        39.50006
J01  43627494.684 4   -125888.115 4       170.925 4        23.500 4                         0.00023       226.50023        18.20023
R18  21339133.59524         0.00024      1902.85024        25.00024
R09  21183098.21605  -4732323.07205      1726.30605        31.00005
R16  20107061.84114   1068823.96214      -747.85714        27.30014
R07  21152216.89514  -5042062.41014      1119.67814        26.90014
C23  22186927.18024        -0.00024      -183.70024        24.70024
C11  24014559.43623         0.00023       142.85023        22.80023
E07  25276915.32624        -0.00024     -2589.40024        27.10024                                                                
E15                         0.00023      2596.10023        19.20023                                                                
E27  23578558.67305    -15162.53705        97.38705        30.10005  23576437.34205    -57696.33105        73.55605        30.90005
G08                                                                  23341719.93424        -0.00024     -2089.25024        24.10024
E19                                                                  26445353.43323         0.00023      1513.80023        23.40023
E30                                                                  24377160.21305    201867.95005     -1363.50005        30.50005
> 2021 04 21 16 46 56.4446016  0 21                      
G07  21529081.63125   2597101.59625     -1448.55625        31.50025                                                                
G08                        -0.00023     -2796.30023        19.90023  23342251.300 4    314812.283 4     -2094.269 4        26.000 4
G09  24454100.28324        -0.00024     -3795.80024        23.80024                                                                
G13  22330486.23005  -4329298.50205      2656.94605        33.60005                                                                
G14  20483558.73124   -704336.45324       692.71224        25.80024  20481211.95605  -2150033.67805       516.95505        33.90005
G17  22619431.29824         0.00024      3252.65024        23.50024                                                                
G28  20759598.93324  -3028864.13124       748.25324        26.00024                                                                
G30  20545915.86305  -1792535.84105       379.31905        33.30005  20543569.98706  -1332203.01506       283.23806        40.80006
R18  21338821.94524         0.00024      1900.20024        24.80024
R09  21182758.08615  -4734049.82915      1722.20615        30.50015
R16  20107210.37214   1069571.46214      -752.49914        26.80014
R07  21152024.56224         0.00024      1115.60024        26.20024
C34  24963280.08523        -0.00023     -1245.80023        20.00023
C25  24513090.74523        -0.00023     -1976.05023        21.20023
C23  22186948.29924        -0.00024      -185.15024        24.80024
C11  24014522.69624    -59906.47924       146.58424        25.90024
E07  25277402.32324        -0.00024     -2592.55024        26.50024                                                                
E27  23578543.51815    -15260.69015        94.28615        30.20015  23576418.28905    -57769.48905        69.95605        32.00005
J01  43627447.45124         0.00024       165.05024        24.50024                                                                
E19                                                                  26444974.329 4   -155026.106 4      1511.994 4        23.500 4
E30                                                                  24377508.10605    203231.52205     -1366.89205        31.40005
> 2021 04 21 16 46 57.4446016  0 20                      
G07  21529359.13425   2598555.08825     -1455.03625        32.30025                                                                
G09  24454813.08423        -0.00023     -3796.05023        22.50023                                                                
G13  22329982.17405  -4331950.61905      2650.37705        33.90005                                                                
G14  20483442.90724         0.00024       685.55024        25.60024  20481081.44105  -2150546.84505       512.04905        34.10005
G17  22618827.71123         0.00023      3247.10023        23.20023                                                                
G28  20759433.04324         0.00024       740.20024        24.80024                                                                
G30  20545844.40705  -1792910.10005       372.67605        33.00005  20543498.53106  -1332482.52206       278.32906        40.90006
J01  43627409.272 4   -126224.090 4       163.659 4        24.700 4                         0.00023       221.30023        19.90023
R18  21338477.67824         0.00024      1897.10024        25.20024
R09  21182468.08215  -4735767.62415      1715.64015        30.30015
R16  20107357.16514   1070328.47114      -759.27114        27.60014
R17                        -0.00023     -1529.25023        19.90023
R07  21151797.51424  -5044292.25124      1107.57224        26.60024
C25  24513489.36423        -0.00023     -1979.35023        22.10023
C23  22187003.35624    -20231.67424      -189.94424        26.10024
C11  24014515.39624         0.00024       137.80024        24.00024
E07  25277888.18124        -0.00024     -2599.75024        27.30024                                                                
E27  23578523.02705    -15349.46905        87.53205        30.50005  23576401.09605    -57835.80805        65.78305        32.20005
G08                                                                  23342790.82124        -0.00024     -2098.55024        25.80024
E30                                                                  24377856.96005    204601.91705     -1370.65605        30.90005
> 2021 04 21 16 46 58.4446016  0 20                      
G07  21529637.59425   2600012.63925     -1458.39725        31.40025                                                                
G13  22329472.18005  -4334598.57805      2646.98705        33.50005                                                                
G14  20483301.35824   -705707.02624       681.94424        25.70024  20480950.68505  -2151056.86905       509.40705        33.80005
G17  22618193.90223         0.00023      3242.85023        20.90023                                                                
G28  20759314.87824         0.00024       736.75024        25.40024                                                                
G30  20545777.20705  -1793280.34405       369.36805        33.30005  20543428.03306  -1332758.98306       275.78406        40.30006
R18  21338058.52224         0.00024      1890.55024        25.60024
R09  21182104.68605  -4737480.50905      1712.61005        30.70005
R16  20107488.42814   1071090.35014      -762.13614        27.40014
R07  21151570.22524         0.00024      1102.90024        26.40024
C34  24963763.79823        -0.00023     -1254.20023        20.50023
C25  24513864.65723        -0.00023     -1984.85023        21.70023
C23  22187037.18624        -0.00024      -191.65024        25.00024
C11  24014467.08323         0.00023       144.65023        22.20023
E07  25278387.28924        -0.00024     -2598.45024        26.60024                                                                
E27  23578512.18805    -15434.23305        84.41505        29.60005  23576384.86105    -57899.14805        63.29605        32.60005
G08                                                                  23343323.806 4    319011.534 4     -2101.674 4        24.600 4
J01  43627366.05524         0.00024       163.65024        23.90024                                                                
E19                                                                  26444203.71123         0.00023      1503.55023        21.30023
E30                                                                  24378206.77105    205975.12205     -1372.84805        31.40005
> 2021 04 21 16 46 59.4446016  0 20                      
G07  21529912.83825   2601471.41825     -1459.29625        31.60025                                                                
G08                        -0.00023     -2816.10023        19.40023  23343858.96924        -0.00024     -2101.55024        24.40024
G09  24456269.46323        -0.00023     -3803.20023        22.00023                                                                
G13  22328970.36205  -4337245.16505      2646.10305        33.50005                                                                
G14  20483180.57514   -706388.73314       681.10814        26.20014  20480822.10805  -2151565.90705       508.61305        34.70005
G17  22617561.67423         0.00023      3245.85023        22.40023                                                                
G28  20759160.81824         0.00024       738.75024        24.30024                                                                
G30  20545704.99105  -1793649.32805       368.45405        33.70005  20543357.61606  -1333034.51006       275.11706        41.10006
R18  21337743.77423         0.00023      1888.20023        23.40023
R09  21181817.51905  -4739192.72505      1711.83805        31.30005
R16  20107611.07714   1071852.50714      -763.26314        26.70014
R17  22446141.84623        -0.00023     -1544.10023        21.10023
R07  21151376.59324  -5046500.91324      1102.42924        26.50024
C23  22187063.00224        -0.00024      -190.55024        25.30024
C11  24014460.22123         0.00023       132.75023        22.40023
E07  25278878.38324        -0.00024     -2605.45024        27.30024                                                                
E15                         0.00023      2587.10023        18.60023                                                                
E27  23578495.73315    -15517.94415        83.19915        30.70015  23576369.60505    -57961.67705        62.33905        32.50005
J01  43627324.418 3   -126546.885 3       160.657 3        22.900 3                                                                
E30                                                                  24378556.96205    207349.09605     -1373.94405        31.60005
> 2021 04 21 16 47 00.4446016  0 21                      
G07  21530184.13505   2602929.68505     -1457.83505        31.50005                                                                
G09  24456987.45124        -0.00024     -3802.00024        23.50024                        -0.00023     -2829.00023        18.10023
G13  22328471.79205  -4339892.67205      2647.30505        34.00005                                                                
G14  20483047.15304   -707070.80704       682.59804        25.90004  20480692.88305  -2152075.59505       509.64405        35.10005
G17  22616952.18123         0.00023      3247.20023        22.70023                                                                
G28  20759036.090 4  -3031818.594 4       737.685 4        26.400 4                                                                
G30  20545635.42405  -1794019.30105       369.96105        33.50005  20543287.45006  -1333310.79106       276.27206        41.40006
J01  43627280.03423         0.00023       163.40023        22.50023                         0.00023       213.55023        18.60023
R18  21337398.39823         0.00023      1887.40023        22.90023
R09  21181477.84005  -4740906.09005      1713.47105        30.70005
R16  20107783.74214   1072613.96714      -761.05114        27.70014
R07  21151167.92314  -5047604.06114      1103.42914        26.80014
C34  24964238.68923        -0.00023     -1256.40023        21.10023
C25  24514619.55423        -0.00023     -1984.65023        20.80023
C23  22187111.55424    -19653.69124      -192.25524        26.10024
C11  24014435.62423         0.00023       132.65023        23.00023
E07  25279382.61924        -0.00024     -2604.80024        26.50024                                                                
E27  23578475.03305    -15602.89005        85.18305        30.60005  23576353.10205    -58025.04305        63.81605        31.90005
G08                                                                  23344397.082 4    323215.130 4     -2101.518 4        24.600 4
E19                                                                  26443435.96223         0.00023      1507.75023        21.40023
E30                                                                  24378907.70505    208722.08305     -1372.75305        31.50005
> 2021 04 21 16 47 01.4446016  0 18                      
G07  21530456.68215   2604382.08215     -1444.29115        31.80015                                                                
G09  24457726.17624        -0.00024     -3788.10024        24.10024                                                                
G13  22327964.57905  -4342545.05205      2660.88605        33.40005                                                                
G14  20482914.98014   -707757.23714       694.00114        26.00014  20480561.60905  -2152588.87505       519.68705        31.00005
G28  20758903.91724         0.00024       751.80024        25.00024                                                                
G30  20545567.10705  -1794394.18305       383.41505        33.40005  20543216.43406  -1333590.76106       286.27506        38.30006
R18  21337043.77924         0.00024      1901.85024        23.70024
R09  21181168.78915  -4742625.01115      1727.24115        30.80015
R16  20107910.59014   1073372.07914      -754.62014        27.30014
R07  21150967.99714  -5048711.74414      1114.77214        27.60014
C25  24515014.71623        -0.00023     -1972.85023        22.00023
C23  22187147.56524        -0.00024      -175.75024        24.10024
C11  24014409.27823         0.00023       147.10023        23.40023
E07  25279877.61224        -0.00024     -2587.60024        25.30024                                                                
E27  23578459.18005    -15692.71605        97.56205        30.40005  23576336.34904    -58092.27504        78.37104        29.30004
G08                                                                  23344930.44824        -0.00024     -2093.35024        24.70024
J01  43627241.39623         0.00023       165.65023        22.50023                                                                
E30                                                                  24379258.19814    210091.13314     -1357.52314        29.10014
> 2021 04 21 16 47 02.4446016  0 20                      
G07  21530736.85315   2605828.90415     -1446.54115        31.80015                                                                
G08                        -0.00023     -2806.60023        19.50023  23345463.044 4    327414.551 4     -2093.805 4        23.700 4
G09  24458434.75023        -0.00023     -3789.05023        23.10023                                                                
G13  22327465.58905  -4345203.25405      2658.57805        33.40005                                                                
G14  20482781.73724         0.00024       690.95024        24.90024  20480429.86605  -2153106.56705       517.89305        32.50005
G17  22615742.12023         0.00023      3256.30023        21.90023                                                                
G28  20758736.79824         0.00024       750.55024        25.00024                                                                
G30  20545494.42205  -1794775.04905       381.18005        33.10005  20543143.15006  -1333875.14406       284.68506        38.80006
R18  21336705.77823         0.00023      1902.80023        22.20023
R09  21180861.36715  -4744349.17115      1724.98415        30.20015
R16  20108060.65104   1074127.08004      -749.77904        27.00004
R07  21150766.70124         0.00024      1113.95024        26.30024
C25  24515408.50823        -0.00023     -1976.50023        21.20023
C23  22187185.80324        -0.00024      -180.65024        24.70024
C11  24014389.35624         0.00024       145.10024        24.50024
E07  25280366.13924        -0.00024     -2590.35024        26.20024                                                                
E15                         0.00023      2588.35023        19.30023                                                                
E27  23578443.15615    -15788.84715        96.66515        29.80015  23576316.72815    -58163.85915        70.53115        29.70015
J01  43627198.39123         0.00023       170.30023        22.20023                                                                
E30                                                                  24379604.02404    211455.70504     -1366.02204        29.20004
> 2021 04 21 16 47 03.4446015  0 20                      
G07  21530989.60515   2607262.91315     -1433.57615        32.70015                                                                
G09  24459128.79723        -0.00023     -3775.45023        22.30023                                                                
G13  22326926.88915  -4347874.19215      2671.14315        33.40015                                                                
G14  20482608.18524         0.00024       706.05024        25.20024  20480265.30705  -2153633.73505       527.49105        32.90005
G17  22615082.00423         0.00023      3272.45023        21.30023                                                                
G28  20758556.35024         0.00024       759.40024        25.60024                                                                
G30  20545386.22405  -1795168.65305       393.99205        33.10005  20543038.25006  -1334169.06706       294.26006        39.60006
J01  43627122.87123         0.00023       184.25023        23.00023                         0.00023       237.00023        18.20023
R18  21336262.41223         0.00023      1911.10023        21.90023
R09  21180489.65115  -4746087.57915      1741.72215        30.40015
R16  20108173.10124        -0.00024      -734.40024        26.30024
R07  21150508.60724         0.00024      1125.50024        26.80024
C34                        -0.00023     -1241.70023        19.50023
C25  24515735.60923        -0.00023     -1958.55023        23.30023
C23  22187185.53024        -0.00024      -169.50024        25.30024
C11  24014324.02924         0.00024       157.15024        25.60024
E07  25280826.34724        -0.00024     -2579.60024        25.40024                                                                
E27  23578395.21605    -15897.64505       109.45505        30.10005  23576267.58905    -58245.32605        83.27105        30.70005
G08                                                                  23345967.02324        -0.00024     -2083.45024        25.80024
E30                                                                  24379919.13205    212810.27305     -1352.39505        30.50005
> 2021 04 21 16 47 04.4446016  0 19                      
G07  21531294.73215   2608713.73715     -1461.40615        31.90015                                                                
G09  24459877.01723        -0.00023     -3804.00023        23.30023                                                                
G13  22326444.46215  -4350528.31215      2644.04215        33.80015                                                                
G14  20482514.88724         0.00024       680.90024        24.80024  20480164.81405  -2154148.34805       507.09905        32.90005
G28  20758451.96024         0.00024       735.20024        25.60024                                                                
G30  20545351.68605  -1795545.63205       367.02005        33.90005  20542997.11606  -1334450.56906       273.93906        39.50006
R18  21335991.03823         0.00023      1885.10023        23.00023
R09  21180191.89625         0.00025      1710.25025        31.30025
R16  20108300.15124        -0.00024      -765.75024        27.90024
R07  21150388.02824         0.00024      1101.45024        26.40024
C25  24516129.77423        -0.00023     -1982.35023        22.70023
C23  22187249.32424    -18914.40424      -188.27224        25.80024
C11  24014325.16624         0.00024       132.40024        23.90024
E07  25281359.31724        -0.00024     -2606.00024        26.70024                                                                
E27  23578403.24805    -15990.38405        83.84205        30.50005  23576280.11805    -58314.26205        60.71105        31.50005
G08                                                                  23346529.67124        -0.00024     -2101.35024        24.80024
J01  43627106.62023         0.00023       154.90023        21.80023                                                                
E19                                                                                         0.00023      1512.05023        19.00023
E30                                                                  24380298.30805    214177.30805     -1375.41805        30.50005
> 2021 04 21 16 47 05.4446015  0 20                      
G07  21531545.84325   2610176.80125     -1462.66225        31.10025                                                                
G09  24460566.12523        -0.00023     -3802.75023        22.80023                                                                
G13  22325907.41825  -4353170.51925      2642.08825        33.50025                                                                
G14  20482361.57924   -710518.68024       677.34724        25.90024  20480005.51005  -2154654.05305       505.60205        33.60005
G28  20758301.94924         0.00024       729.05024        25.60024                                                                
G30  20545248.14305  -1795910.67605       364.98005        33.90005  20542897.47106  -1334723.19906       272.56706        39.90006
J01                                                                  43629372.03723         0.00023       211.80023        20.30023
R18  21335606.58924         0.00024      1881.75024        23.90024
R09  21179859.01125  -4749534.09325      1709.17125        31.80025
R16  20108442.43724   1076356.44324      -766.14124        26.80024
R17                        -0.00022     -1535.35022        16.20022
R07  21150122.29824  -5053164.16724      1095.54224        26.70024
C34  24965414.22623        -0.00023     -1256.05023        20.30023
C25  24516488.51123        -0.00023     -1990.60023        21.60023
C23  22187259.40214    -18717.86014      -196.17314        26.60014
C11  24014268.39024         0.00024       128.80024        24.30024
E07  25281812.48824        -0.00024     -2609.55024        25.90024                                                                
E27  23578359.66405    -16070.77805        80.72605        30.10005  23576234.43505    -58374.56505        60.90805        32.00005
G08                                                                  23347034.40723        -0.00023     -2104.80023        23.20023
E30                                                                  24380618.37205    215552.79605     -1374.55405        29.90005
> 2021 04 21 16 47 06.4446015  0 22                      
G07  21531818.73905   2611637.69105     -1459.90905        31.60005                                                                
G09  24461316.59024        -0.00024     -3799.35024        23.70024                                                                
G13  22325408.94805  -4355814.32105      2644.60505        34.30005                                                                
G14  20482229.15524         0.00024       683.60024        25.60024  20479876.08405  -2155160.94505       507.58705        33.70005
G17                         0.00023      3241.00023        18.60023                                                                
G28  20758152.437 4  -3036293.596 4       734.980 4        26.400 4                                                                
G30  20545171.78105  -1796277.48905       367.73505        33.80005  20542827.70306  -1334997.10606       274.58406        40.50006
R18  21335246.02423         0.00023      1881.65023        23.40023
R09  21179530.52315  -4751245.05015      1711.96015        30.90015
R16  20108570.23414   1077121.73514      -764.11314        26.80014
R07  21149925.71814  -5054260.23414      1097.64314        27.00014
C34  24965643.95123        -0.00023     -1256.05023        21.50023
C25  24516872.62923        -0.00023     -1983.90023        21.20023
C23  22187301.15824        -0.00024      -196.70024        25.70024
C11  24014245.99124         0.00024       134.15024        25.10024
E07  25282311.72724        -0.00024     -2606.20024        26.90024                        -0.00022     -1940.10022        15.80022
E19                         0.00022      2023.75022        16.00022  26441097.11623         0.00023      1501.50023        21.50023
E21                         0.00022      1801.15022        15.70022                                                                
E27  23578345.95815    -16153.26115        83.08215        30.50015  23576218.63105    -58436.18505        64.03705        33.10005
G08                                                                  23347570.221 4    335774.055 4     -2103.428 4        25.300 4
J01  43626997.76523         0.00023       160.40023        20.70023                                                                
E30                                                                  24380968.01405    216926.90905     -1371.75405        30.90005
> 2021 04 21 16 47 07.4446015  0 19                      
G07  21532098.79305   2613097.57905     -1459.37205        31.20005                                                                
G08                        -0.00023     -2816.05023        18.60023  23348107.79624        -0.00024     -2102.55024        25.30024
G09  24462033.74124        -0.00024     -3804.45024        24.20024                                                                
G13  22324901.74705  -4358459.05905      2645.16705        33.80005                                                                
G14  20482107.48724         0.00024       680.35024        25.40024  20479746.92105  -2155668.50505       507.89105        34.80005
G28  20758010.98314  -3037029.02314       735.17514        26.80014                                                                
G30  20545103.77505  -1796645.25905       368.29805        33.80005  20542757.30007  -1335271.72107       275.03307        41.70007
R18  21334852.14423         0.00023      1884.80023        23.40023
R09  21179193.90415  -4752957.08215      1712.66115        30.90015
R16  20108733.06924        -0.00024      -762.50024        26.40024
R07  21149670.94214  -5055357.85814      1095.74814        26.80014
C34  24965890.72823        -0.00023     -1259.80023        22.30023
C23  22187329.98624        -0.00024      -197.00024        24.30024
C11  24014210.96224         0.00024       132.20024        24.10024
E07  25282811.82824        -0.00024     -2606.60024        26.90024  25280684.80124        -0.00024     -1942.50024        24.20024
E27  23578328.01805    -16236.93005        83.78505        30.60005  23576203.98805    -58498.67305        63.77005        33.00005
J01  43626955.542 4   -127945.651 4       162.369 4        23.500 4                                                                
E19                                                                  26440714.62923         0.00023      1497.55023        22.10023
E30                                                                  24381317.92005    218300.11805     -1371.51005        31.60005
> 2021 04 21 16 47 08.4446015  0 18                      
G07  21532369.15915   2614549.79215     -1443.72715        31.40015                                                                
G08  23350989.65523        -0.00023     -2799.40023        21.20023  23348641.38024        -0.00024     -2090.00024        24.10024
G09  24462763.09024        -0.00024     -3786.65024        24.60024                                                                
G13  22324392.05315  -4361111.32215      2660.82115        33.60015                                                                
G14  20481959.34324   -712560.85324       692.66324        26.10024  20479615.56515  -2156181.71615       519.46815        30.70015
G28  20757881.12624         0.00024       749.20024        26.10024                                                                
G30  20545030.28015  -1797020.66315       383.78715        33.30015  20542686.50206  -1335552.07306       286.59606        38.80006
J01                                                                                         0.00023       228.50023        19.20023
R18  21334532.81923         0.00023      1902.20023        23.10023
R09  21178881.77415  -4754673.46215      1724.85915        30.90015
R16  20108837.05024        -0.00024      -747.55024        26.40024
R07  21149458.94324         0.00024      1114.20024        25.70024
C25  24517629.90623        -0.00023     -1975.85023        21.20023
C23  22187364.41624        -0.00024      -181.40024        25.40024
C11  24014189.63124         0.00024       143.65024        24.30024
E07  25283304.64124        -0.00024     -2587.10024        26.90024                                                                
E27  23578306.68605    -16328.34205        98.60405        30.50005  23576184.45515    -58566.93115        74.39815        30.60015
E30                                                                  24381668.03115    219667.39015     -1361.22115        31.60015
> 2021 04 21 16 47 09.4446015  0 20                      
G07  21532642.23015   2615990.07415     -1440.23515        31.50015                                                                
G09  24463491.84523        -0.00023     -3781.15023        22.30023                                                                
G13  22323890.76025  -4363775.41725      2664.08125        33.70025                                                                
G14  20481835.48924         0.00024       700.45024        25.40024  20479483.01705  -2156703.72105       522.07105        35.30005
G17                         0.00023      3243.20023        17.90023                                                                
G28  20757725.79424  -3038516.52324       753.98424        26.30024                                                                
G30  20544959.48925  -1797407.99925       387.42125        33.50025  20542612.41407  -1335841.30007       289.31407        42.00007
R18  21334114.86823         0.00023      1907.85023        22.50023
R09  21178551.66215  -4756406.36215      1732.49715        30.60015
R16  20108996.20024   1079391.74324      -743.41124        26.90024
R07  21149264.63724  -5057576.51624      1120.33824        27.60024
C34  24966366.11323        -0.00023     -1247.30023        21.50023
C23  22187391.95724        -0.00024      -173.45024        24.90024
C11  24014161.11124         0.00024       149.90024        24.00024
E07  25283788.16624        -0.00024     -2587.20024        27.20024                                                                
E27  23578287.46015    -16432.18115       104.54415        30.50015  23576165.22905    -58644.24905        76.57205        34.20005
G08                                                                  23349175.57124        -0.00024     -2088.25024        27.10024
J01  43626865.81823         0.00023       177.95023        21.90023                                                                
E19                                                                  26439941.07823         0.00023      1515.25023        21.50023
E30                                                                  24382013.65205    221025.51805     -1359.23705        33.10005
> 2021 04 21 16 47 10.4446015  0 22                      
G07  21532917.92225   2617437.70825     -1455.47325        31.40025                                                                
G09  24464193.54223        -0.00023     -3794.00023        23.20023                                                                
G13  22323392.38815  -4366432.08315      2648.65315        33.50015                                                                
G14  20481690.87224         0.00024       684.75024        24.20024  20479351.59106  -2157220.17406       510.57206        36.70006
G21                         0.00022      1085.15022        13.60022                                                                
G28  20757582.37614  -3039264.52114       739.72114        26.70014                                                                
G30  20544879.62725  -1797787.98125       372.16825        33.50025  20542540.04707  -1336125.06007       277.97107        42.90007
R18  21333752.60124         0.00024      1892.00024        23.60024
R09  21178232.26605  -4758131.31905      1717.12005        31.20005
R16  20109127.39214   1080142.05414      -758.32714        26.60014
R07  21149072.35324         0.00024      1099.40024        26.90024
C34  24966591.14023        -0.00023     -1253.30023        21.60023
C25  24518393.02123        -0.00023     -1970.10023        21.40023
C23  22187441.90524        -0.00024      -187.75024        25.50024
C11  24014134.01224         0.00024       132.30024        25.40024
E07  25284286.30424        -0.00024     -2599.30024        25.70024  25282160.77523        -0.00023     -1931.75023        20.50023
E15                         0.00023      2590.80023        17.50023                                                                
E27  23578270.85415    -16528.40015        89.20715        29.90015  23576148.02305    -58716.19005        65.53805        34.80005
G08                                                                  23349708.184 4    344165.669 4     -2100.803 4        27.100 4
J01  43626822.83024         0.00024       165.45024        23.90024                                                                
E19                                                                  26439556.92724         0.00024      1507.30024        23.80024
E30                                                                  24382360.99405    222388.90205     -1369.64305        33.90005
> 2021 04 21 16 47 11.4446015  0 19                      
G07  21533202.51525   2618899.01325     -1463.10425        30.30025                                                                
G09  24464916.13124        -0.00024     -3806.05024        23.60024                                                                
G13  22322884.02925  -4369075.00125      2640.93025        33.50025                                                                
G14  20481564.14924   -714643.41924       675.93924        26.20024  20479222.17006  -2157726.36306       504.79106        36.50006
G28  20757437.96514  -3039997.18214       731.40114        27.10014                                                                
G30  20544817.65925  -1798154.27225       364.37725        33.40025  20542470.88407  -1336398.60407       272.15307        43.80007
R18  21333463.09123         0.00023      1879.15023        23.20023
R09  21177895.38905  -4759842.44305      1709.28105        31.40005
R16  20109282.47414   1080906.12514      -765.74814        26.90014
R07  21148869.78324         0.00024      1090.20024        26.20024
C23  22187464.77824        -0.00024      -196.90024        25.20024
C11  24014114.91523         0.00023       128.45023        22.50023
E07  25284785.84724        -0.00024     -2604.85024        26.70024                                                                
E27  23578259.55105    -16611.13905        81.42305        30.10005  23576132.52405    -58778.01605        60.24905        35.40005
G08                                                                  23350244.60324        -0.00024     -2108.00024        26.70024
J01  43626784.846 4   -128610.352 4       160.796 4        23.700 4                                                                
E19                                                                  26439174.781 4   -177647.881 4      1501.271 4        24.400 4
E21                                                                                         0.00023      1343.45023        19.40023
E30                                                                  24382710.94115       747.33715     -1374.87715        34.80015
> 2021 04 21 16 47 12.4446015  0 20                      
G07  21533469.28605   2620363.54105     -1466.55405        31.00005                                                                
G09  24465640.68624        -0.00024     -3805.20024        23.60024                                                                
G13  22322378.53605  -4371714.57805      2637.48505        33.40005                                                                
G14  20481444.48824         0.00024       674.80024        25.10024  20479093.51606  -2158230.03406       502.12506        36.80006
G28  20757310.51024         0.00024       727.20024        25.50024                                                                
G30  20544746.56505  -1798517.31505       360.97205        32.80005  20542401.28907  -1336669.71207       269.52107        43.80007
J01  43626741.93224         0.00024       160.40024        26.50024                         0.00023       219.00023        18.20023
R09  21177605.44605  -4761550.41805      1705.84605        32.10005
R16  20109434.12514   1081674.02814      -769.73914        27.80014
R07  21148642.197 4  -5060888.225 4      1087.958 4        27.000 4
C34  24967080.74723        -0.00023     -1265.90023        21.00023
C25                        -0.00023     -1990.25023        19.40023
C23  22187518.39824    -17397.88924      -199.62224        26.10024
C11  24014080.69523         0.00023       124.20023        23.30023
E07  25285267.57124        -0.00024     -2609.05024        25.50024                                                                
E19                         0.00022      2011.80022        17.30022  26438793.70114   -179147.89814      1498.19114        23.70014
E27  23578240.92005    -16690.81905        77.95605        30.50005  23576117.19105    -58837.51305        57.38605        35.40005
G08                                                                  23350780.288 4    348378.338 4     -2109.183 4        26.300 4
E21                                                                  26537445.20624         0.00024      1339.55024        24.40024
E30                                                                  24383060.75505      2122.96105     -1377.73005        34.80005
> 2021 04 21 16 47 13.4446015  0 21                      
G07  21533755.72005   2621829.28405     -1464.46305        31.00005                                                                
G08                        -0.00023     -2818.25023        17.60023  23351320.64624        -0.00024     -2109.90024        28.00024
G09  24466367.51624        -0.00024     -3806.25024        24.60024                                                                
G13  22321884.61005  -4374352.90305      2639.52505        33.70005                                                                
G14  20481306.11624         0.00024       673.40024        24.90024  20478966.23606  -2158732.74606       503.59806        36.50006
G17                         0.00023      3244.25023        18.00023                                                                
G28  20757154.45024  -3041456.28024       730.17824        26.80024                                                                
G30  20544683.14105  -1798879.15505       363.01405        33.40005  20542332.46807  -1336939.93607       271.27607        43.60007
J01  43626702.492 4   -128928.980 4       160.640 4        26.100 4  43629014.19123         0.00023       213.70023        21.60023
R18  21332745.17723         0.00023      1878.10023        22.60023
R09  21177289.89705  -4763257.34105      1708.28405        31.00005
R16  20109564.96714   1082445.15014      -769.21814        27.00014
R07  21148480.14124         0.00024      1092.45024        26.30024
C34  24967333.00423        -0.00023     -1267.00023        23.00023
C23  22187548.50914    -17199.82214      -196.65114        25.80014
C11  24014052.34724         0.00024       124.15024        24.00024
E07  25285766.85724        -0.00024     -2607.35024        27.00024  25283652.12123        -0.00023     -1947.00023        20.70023
E15                         0.00023      2582.65023        19.20023                                                                
E27  23578226.36315    -16769.58515        80.13315        29.90015  23576103.23306    -58896.26206        61.40306        35.80006
E19                                                                  26438410.69814   -180647.01114      1500.62814        26.30014
E30                                                                  24383412.84405      3499.26405     -1373.73705        35.00005
> 2021 04 21 16 47 14.4446015  0 21                      
G07  21534036.04105   2623294.25905     -1462.31405        31.90005                                                                
G09  24467088.83124        -0.00024     -3801.65024        24.30024                                                                
G13  22321380.67405  -4376991.83305      2642.28905        33.30005                                                                
G14  20481173.92324         0.00024       674.75024        25.60024  20478836.74105  -2159235.94605       505.22405        33.70005
G21                         0.00023      1077.00023        17.60023                                                                
G28  20757041.14414  -3042185.02414       731.37614        27.00014                                                                
G30  20544612.70505  -1799241.72205       365.16605        33.50005  20542263.83106  -1337210.72206       272.79906        41.40006
R18  21332389.93823         0.00023      1879.60023        22.60023
R09  21176966.73505  -4764965.17605      1710.75705        31.10005
R16  20109701.38814   1083212.72414      -765.08714        26.90014
R07  21148275.997 4  -5063064.406 4      1090.253 4        26.500 4
C34  24967574.95223        -0.00023     -1262.65023        21.00023
C25  24519929.65023        -0.00023     -1986.80023        21.30023
C23  22187583.00014    -17001.94814      -196.60614        25.80014
C11  24014034.37424         0.00024       125.15024        24.80024
E07  25286275.02024        -0.00024     -2608.65024        26.20024  25284148.89224        -0.00024     -1953.50024        24.70024
E27  23578212.58705    -16848.87205        81.86005        30.50005  23576087.05905    -58955.60505        61.67005        31.40005
G08                                                                  23351852.193 4    352595.095 4     -2105.771 4        25.000 4
J01  43626662.33424         0.00024       165.40024        25.00024                                                                
E19                                                                  26438027.57914   -182146.65014      1501.67714        24.90014
E30                                                                  24383762.41705      4874.79905     -1372.90705        30.10005
> 2021 04 21 16 47 15.4446015  0 20                      
G07  21534314.81505   2624750.31405     -1457.94505        32.20005                                                                
G08                        -0.00023     -2818.60023        19.50023  23352390.58724        -0.00024     -2103.45024        24.30024
G09  24467805.60123        -0.00023     -3799.35023        23.30023                                                                
G13  22320872.49205  -4379639.58305      2645.78305        32.90005                                                                
G14  20481066.86324         0.00024       680.30024        24.40024  20478708.39616  -2159745.71016       507.87116        37.40016
G28  20756886.71714  -3042923.15914       737.59214        27.50014                                                                
G30  20544535.92405  -1799613.23305       369.64705        32.70005  20542192.74707  -1337488.08307       275.99507        44.30007
R18  21332044.84323         0.00023      1882.10023        22.90023
R09  21176635.43105  -4766682.21205      1715.16605        31.20005
R16  20109845.25514   1083971.12214      -760.25614        27.20014
R07  21148044.22414  -5064161.87714      1094.50314        27.20014
C34  24967812.05423        -0.00023     -1266.10023        21.00023
C23  22187622.23924        -0.00024      -192.45024        24.90024
C11  24014009.45824         0.00024       131.80024        24.80024
E07  25286769.94424        -0.00024     -2601.70024        25.60024  25284643.51624        -0.00024     -1943.35024        23.90024
E27  23578194.26605    -16937.46405        86.99805        31.70005  23576070.53706    -59021.73506        63.93306        35.80006
J01  43626621.229 4   -129255.596 4       165.624 4        24.600 4                                                                
E19                                                                  26437643.81123         0.00023      1500.65023        23.40023
E21                                                                  26536424.82623         0.00023      1343.25023        20.70023
E30                                                                  24384111.94105      6243.58605     -1370.70205        34.70005
> 2021 04 21 16 47 16.4446015  0 27                      
G05  24478151.11424       772.74024     -1743.20524        28.40024                                                                
G07  21534588.50007   2626208.36207     -1451.84007        43.50007                                                                
G08  23355288.35625    210402.75425     -2808.40625        32.70025  23352927.19124        -0.00024     -2096.75024        26.20024
G09  24468536.77026    308512.56426     -3789.66226        35.90026                                                                
G13  22320369.11617  -4382285.22317      2651.94717        44.60017                                                                
G14  20480911.54626   -718030.71326       687.16626        35.70026  20478579.76015  -2160253.91415       512.77915        34.90015
G17  22607042.05624         0.00024      3253.25024        23.60024                                                                
G21  24685913.88324         0.00024      1093.30024        27.30024                                                                
G28  20756749.98716  -3043660.63716       742.16216        38.40016                                                                
G30  20544465.44817  -1799982.69617       375.55017        46.40017  20542122.27007  -1337763.98807       280.59207        42.10007
J01  43626582.53123         0.00023       168.80023        22.70023  43628893.93124         0.00024       228.95024        25.10024
R18  21331701.256 5  -6501451.073 5      1892.505 5        34.000 5
R09  21176315.82707  -4768397.27307      1721.49507        42.60007
R16  20110009.21616   1084731.50216      -753.76916        38.30016
R15                        -0.00022     -2618.10022        16.20022
R05                        -0.00022     -4486.90022        16.40022
R07  21147842.73916  -5065255.37216      1100.63616        38.40016
C34  24968065.05426    131624.76626     -1252.36126        36.60026
C25  24520670.07925        -0.00025     -1973.00025        34.00025
C23  22187656.99026    -16619.12826      -184.27326        40.70026
C11  24013982.75126    -62599.13026       137.80326        41.40026
E07  25287262.478 6      1462.189 6     -2596.163 6        39.800 6  25285142.34624        -0.00024     -1934.15024        27.40024
E19  26439380.78323         0.00023      2023.40023        23.40023  26437265.148 4   -185160.467 4      1503.297 4        26.000 4
E21                         0.00023      1806.20023        19.80023  26536084.537 4    -12659.849 4      1350.838 4        26.800 4
E27  23578178.35307    -17024.15007        91.96807        43.20007  23576053.72305    -59086.49505        71.43005        34.20005
E30  24386582.50623        -0.00023     -1827.35023        21.00023  24384461.77406      7613.53006     -1363.43306        36.90006
G01                                                                  24828124.33323         0.00023      1944.05023        21.00023
> 2021 04 21 16 47 17.4446015  0 30                      
G05  24478478.27725      2515.96125     -1745.71325        32.90025                                                                
G07  21534863.20007   2627658.84807     -1452.76007        47.40007                                                                
G08  23355821.77626    213211.35826     -2811.27126        36.70026  23353462.70924        -0.00024     -2097.35024        27.10024
G09  24469255.76226    312302.09526     -3792.75526        39.90026                        -0.00023     -2837.65023        18.70023
G13  22319865.85428  -4384938.92828      2650.79528        48.50028                                                                
G14  20480784.82326   -718718.72726       685.74926        39.70026  20478447.04106  -2160767.88506       511.96106        35.70006
G15  24971132.62023         0.00023      3258.15023        22.60023                                                                
G17  22606433.86725   -895475.75625      3251.40525        32.50025                                                                
G21  24685704.71725    -20086.77725      1089.40825        34.10025                                                                
G28  20756612.47127  -3044404.22027       741.20927        42.70027                                                                
G30  20544396.28628  -1800359.81328       374.77528        50.20028  20542050.11007  -1338045.78307       279.91107        42.80007
J01  43626536.153 3   -129592.115 3       169.512 3        23.100 3  43628860.74325    -33877.68625       227.23525        32.10025
R18  21331338.29716  -6503341.82716      1887.62616        37.30016
R09  21175993.04007  -4770120.24907      1720.65707        46.30007
R16  20110149.00917   1085483.44317      -754.71917        41.90017
R15  23188376.29624      1432.50124     -2618.05724        27.40024
R05  24223508.38924      2434.19024     -4477.13324        27.60024
R19                         0.00022      4073.90022        14.10022
R17                        -0.00022     -1537.95022        14.10022
R07  21147639.26907  -5066356.96207      1098.96607        42.00007
R08  24379702.35823         0.00023      3622.45023        20.30023
C34  24968305.87726    132878.15326     -1255.90326        40.00026
C25  24521054.20327    531371.88827     -1975.68427        41.60027
C23  22187691.25627    -16436.38327      -185.25127        44.90027
C11  24013955.56027    -62738.05827       135.90127        45.70027
E07  25287757.22507      4055.77907     -2595.89507        44.00007  25285634.99423        -0.00023     -1942.25023        23.00023
E19  26439005.233 5     -1124.369 5      2020.150 5        32.800 5                                                                
E21  26537865.093 5     -1004.007 5      1805.193 5        32.200 5                                                                
E27  23578162.55308    -17118.62008        92.53808        47.50008  23576035.82505    -59157.15705        68.32405        35.10005
E30  24386925.858 5      1021.953 5     -1828.317 5        34.900 5  24384808.12405      8977.42405     -1366.39905        34.20005
> 2021 04 21 16 47 18.4446014  0 31                      
G05  24478781.76105      4262.12905     -1743.80905        33.40005                                                                
G07  21535110.92208   2629112.08808     -1450.97108        47.50008                                                                
G08  23356319.22506    216023.55406     -2809.36206        35.80006  23353966.454 4    361002.571 4     -2097.596 4        26.300 4
G09  24469954.07206    316095.04906     -3790.46306        39.60006                                                                
G13  22319331.11708  -4387588.71008      2652.62708        48.70008                                                                
G14  20480624.52706   -719403.86406       687.35906        39.60006  20478286.74605  -2161279.50305       513.15905        34.60005
G15  24970488.45924         0.00024      3259.25024        25.40024                                                                
G17  22605788.80705   -898726.73505      3253.46705        33.00005                                                                
G21  24685465.87605    -21175.76905      1091.42405        34.00005                                                                
G28  20756442.28307  -3045144.87707       742.87407        42.90007                                                                
G30  20544294.15008  -1800734.07708       376.47108        50.70008  20541948.87406  -1338325.25506       281.13806        41.40006
J01  43626459.49923         0.00023       172.00023        22.70023  43628787.98705    -34104.00305       229.10305        31.20005
R06                        -0.00022     -2763.75022        16.00022
R18  21330956.75506  -6505228.27706      1889.12806        37.80006
R09  21175641.47707  -4771840.49207      1722.58807        46.20007
R16  20110261.82407   1086239.23807      -753.01007        42.00007
R15  23188835.37214      4050.44914     -2617.40714        27.00014
R05  24224320.62114      6911.89114     -4475.35014        28.10014
R19  22999831.21724         0.00024      4078.95024        24.20024
R07  21147395.63107  -5067455.13907      1100.16807        41.70007
R08  24378977.55424         0.00024      3619.80024        24.60024
C34  24968517.32426    134134.50926     -1254.10126        39.80026
C25  24521403.25527    533347.76527     -1973.39427        41.60027
C23  22187697.34627    -16250.78627      -183.14627        45.10027
C11  24013899.89227    -62873.46727       137.66827        45.80027
E07  25288219.29907      6652.52007     -2594.80307        44.20007                                                                
E15  27090305.341 5     -3781.810 5      2595.797 5        33.600 5                                                                
E19  26438587.71505     -3144.04805      2022.04805        32.60005  26436460.68823         0.00023      1506.15023        20.70023
E21  26537491.94505     -2809.53505      1806.90005        31.90005                                                                
E27  23578111.38207    -17210.38407        93.70607        47.30007  23575987.65205    -59225.73405        70.95705        34.30005
E30  24387242.83206      2850.78406     -1827.34306        35.80006  24385126.59705     10343.39805     -1363.17805        33.20005
