     3.03           OBSERVATION DATA    M                   RINEX VERSION / TYPE
GNSSToRINEXV3       Google              20210408 212815 UTC PGM / RUN BY / DATE
Google GnssLogger                                           MARKER NAME
Unknown                                                     MARKER NUMBER
Unknown             Unknown                                 OBSERVER / AGENCY
Unknown             GNSSToRINEXV3       v1.0.0.0            REC # / TYPE / VERS
Unknown             Unknown                                 ANT # / TYPE
        0.0000        0.0000        0.0000                  APPROX POSITION XYZ
        0.0000        0.0000        0.0000                  ANTENNA: DELTA H/E/N
G    8 C1C L1C D1C S1C C5X L5X D5X S5X                      SYS / # / OBS TYPES
R    4 C1C L1C D1C S1C                                      SYS / # / OBS TYPES
C    4 C2I L2I D2I S2I                                      SYS / # / OBS TYPES
E    8 C1C L1C D1C S1C C5X L5X D5X S5X                      SYS / # / OBS TYPES
  2021    04    08    21    28   15.0000000     GPS         TIME OF FIRST OBS
 5 R12 -1 R13 -2 R14 -7 R23  3 R24  2                       GLONASS SLOT / FRQ #
                                                            END OF HEADER
> 2021 04 08 21 28 15.0000697  0 32                      
G03                        -2.01922       -70.24422        16.96222                                                                
G06  21010592.56906  -1165300.40406       744.74706        38.92506  21010587.17305   -872057.24605       556.32205        31.24105
G12  22732968.89305  -4859439.08105      1931.52505        34.80905                                                                
G13  24982829.74706   3205635.84806     -3862.75806        38.53806                                                                
G14  23749371.75224   3384031.23324     -3243.66324        24.98324                                                                
G15  25125772.29007   5434265.16407     -3311.98507        42.39107                                                                
G17  22433711.26505   3364111.07305     -3197.02905        34.02005                                                                
G19  20554696.08006   2168530.84206     -2244.26706        40.93406                                                                
G24  20957850.98207   -197056.25007      -142.81507        46.69907  20957850.98205   -150724.88505      -106.47105        31.37905
R14  21635607.38106  -3341163.03006      2719.20506        41.20906
R13  19296904.83105     73854.06805      -387.43005        29.91205
R12  21502169.45805   4184501.84505     -3574.50705        34.46705
R24  20390055.15907  -2674818.49207      2170.10507        44.13707
R23  19022252.36907    468449.47907      -886.30007        46.95807
C04                    727513.30324      -665.37224        25.91424
C06  41054444.99905     63455.60205      -130.76305        34.86305
C11  24759700.51625   2860910.85925     -3472.51925        32.19625
C16  41462157.34605       -37.85005        -7.92805        33.45805
C23  22195097.45407   1831797.16707     -1935.13907        42.62207
C25  25734897.50106   3875424.27006     -3720.30006        38.66306
C27  25284283.35507  -2626191.85507      2377.10807        42.09307
C28  21875662.59405   -742536.66905       456.52405        34.84305
C34  26899771.67624   2841539.12024     -3788.13224        25.89724
C37  22674342.08007  -1266900.52607      1020.68607        43.66907
E13  24242079.45805  -1792831.79405      1502.23705        34.28605  24242077.05905  -1337078.00005      1122.25405        32.58805
E15  23689002.54506   1116472.30906     -1297.89306        40.85206                    834767.03524      -969.66024        23.61124
E18  19238267.82405   2944877.83305     -3412.66505        33.65105                   2201172.59523     -2546.59723        19.60623
E19                      2593.92922     -2430.24222        16.01122                                                                
E21  25140260.36006  -3705042.45606      1177.84306        36.55006                  -2787895.89523       878.95323        18.48723
E26                       -29.71123      2466.33923        20.61923                                                                
E27  23501344.45805    803667.64905      -867.84205        34.07705  23501350.15404    599620.48604      -648.02704        29.33504
E30  25709835.75104   2247875.04704     -2703.25704        28.77604                   1708175.26322     -2016.60522        12.96622
> 2021 04 08 21 28 16.0000693  0 33                      
G02  22286208.27907  -2484095.93007      2109.18307        41.87207                                                                
G03                        -2.01722       -70.24422        16.30022                                                                
G06  21010329.95107  -1166045.06207       744.28907        41.54007  21010325.15505   -872613.28205       555.27405        29.76905
G12  22732480.53105  -4861370.86005      1930.84405        33.05005                                                                
G13  24983442.52306   3209498.47306     -3862.89806        38.09706                                                                
G14  23749873.60524   3387267.29324     -3240.51724        27.46524                                                                
G15  25126283.13607   5437577.01407     -3312.05107        42.62707                                                                
G17  22434204.72305   3367308.10305     -3197.31905        33.15905                                                                
G19  20555004.86607   2170775.02907     -2244.59907        42.10207                                                                
G24  20957758.94507   -196913.13807      -143.47507        46.63507  20957758.34605   -150617.90505      -107.59905        31.41705
R14  21634948.43706  -3343882.22006      2719.20606        39.99106
R13  19296856.26405     74242.07005      -388.63905        29.68605
R12  21502709.38405   4188076.67605     -3575.54405        34.46105
R24  20389537.71707  -2676988.18207      2169.21307        45.08107
R23  19022292.84108    469336.04308      -887.25408        47.74708
C04                    728186.22424      -665.37224        23.59924
C06  41054352.36305     63586.63105      -131.39805        35.42705
C11  24760251.83405   2864382.99805     -3472.61205        32.96905
C16  41462041.92605       -29.86405        -8.73805        32.29305
C23  22195345.68207   1833732.73307     -1936.07507        42.55307
C25  25735491.09006   3879144.92006     -3721.12006        38.39706
C27  25283707.75307  -2628569.12307      2377.12007        43.37507
C28  21875453.33905   -742992.49405       455.46805        34.56705
C34  26900383.55224   2845325.31124     -3787.65524        25.78924
C37  22674021.90107  -1267921.10507      1020.15407        43.40707
E13  24241672.93905  -1794333.80905      1501.63105        35.43305  24241671.44005  -1338199.54505      1121.14805        32.22205
E15  23689129.65706   1117770.31806     -1298.46206        41.24406                    835736.14723      -959.72823        21.79423
E18  19238797.55805   2948291.68605     -3414.85205        34.80205                   2203719.01823     -2547.01623        20.36323
E19                      2593.98622     -2430.24222        17.45422                                                                
E21  25139910.80206  -3706220.47206      1177.68706        39.14106                  -2788775.83523       879.25823        19.11023
E26                       -29.76923      2466.33923        18.91323                                                                
E27  23501390.02605    804535.37405      -867.64605        34.50505  23501396.32224    600268.45324      -648.07424        29.49124
E30  25710229.37904   2250578.50504     -2703.50504        28.50704                   1710194.39623     -2017.36723        18.13723
> 2021 04 08 21 28 17.0000689  0 33                      
G02  22285687.83907  -2486205.39407      2109.31907        43.33907                                                                
G03                        -2.00623       -71.21923        20.47923                                                                
G06  21010066.73306  -1166789.11106       743.63106        40.92606  21010063.73624   -873169.00824       555.23124        28.02124
G12  22731992.76905  -4863302.57705      1931.95505        34.37405                                                                
G13  24984056.19806   3213360.98506     -3862.54006        37.33006                                                                
G14  23750367.96224   3390510.21724     -3242.70424        28.50624                                                                
G15  25126793.08307   5440888.79707     -3311.71407        41.99007                                                                
G17  22434693.68505   3370505.34805     -3197.37405        32.00605                                                                
G19  20555312.75307   2173019.55407     -2244.58807        42.85107                                                                
G24  20957665.71007   -196769.40007      -143.92007        46.75807  20957665.71005   -150510.68105      -107.11105        32.16505
R14  21634334.16206  -3346601.32306      2719.11406        40.47506
R13  19296816.09214     74630.72214      -389.17614        28.65814
R12  21503243.01505   4191651.78805     -3575.62005        34.74205
R24  20389012.78007  -2679157.34107      2168.92007        45.36807
R23  19022341.70708    470223.39408      -887.64208        47.91008
C04                    728846.48324      -665.37224        23.76024
C06  41054257.32905     63717.83505      -131.15205        34.84905
C11  24760795.35825   2867855.24925     -3472.49725        31.50925
C16  41461921.40905       -21.50805        -8.20805        33.14505
C23  22195599.30607   1835668.69707     -1936.24007        42.57607
C25  25736083.48006   3882865.79406     -3720.84306        38.55706
C27  25283132.15207  -2630946.27907      2377.08807        42.52007
C28  21875247.08205   -743448.03205       455.23205        35.33205
C34                   2849111.33224     -3787.24824        25.42024
C37  22673709.51807  -1268941.39807      1020.14207        43.68907
E13  24241268.81905  -1795835.44905      1501.71905        34.37505  24241265.52105  -1339320.96305      1121.39705        32.15405
E15  23689254.07106   1119068.76106     -1298.82306        41.27606                    836710.88123      -969.93123        21.04223
E18  19239321.29505   2951706.57205     -3415.22205        34.65205                   2206269.32023     -2548.14023        23.05123
E19                      2593.89122     -2430.24222        17.49022                                                                
E21  25139571.43706  -3707398.47306      1178.20306        39.34406                  -2789653.60022       879.86722        14.44422
E26                       -29.67323      2466.33923        20.92223                                                                
E27  23501434.99505    805403.26805      -867.73005        34.22605  23501441.59125    600916.60725      -648.48425        30.52525
E30  25710627.20304   2253282.17204     -2702.67204        28.93804                   1712211.47423     -2017.08123        18.20723
> 2021 04 08 21 28 18.0000684  0 33                      
G02  22285136.22107  -2488314.43507      2108.78107        43.21107                                                                
G03                        -2.00423       -71.21923        21.09923                                                                
G06  21009777.43406  -1167532.53606       743.01306        40.88506  21009772.63724   -873724.18624       554.99024        27.58224
G12  22731479.22405  -4865234.10305      1931.27805        34.64205                                                                
G13  24984640.79306   3217223.28506     -3862.12306        37.04006                                                                
G14  23750842.53425   3393753.14125     -3242.43425        30.01725                                                                
G15  25127272.45107   5444200.62107     -3311.75607        42.20607                                                                
G17  22435152.96705   3373702.56805     -3197.55805        33.31505                                                                
G19  20555590.06107   2175264.50507     -2245.12507        43.63707                                                                
G24  20957541.29607   -196625.05307      -144.70107        46.53907  20957543.69405   -150402.82405      -108.04305        33.12505
R14  21633672.52006  -3349320.21006      2718.66606        39.77806
R13  19296730.35214     75019.81514      -386.45814        27.47814
R12  21503752.06206   4195227.67206     -3575.97906        36.64206
R24  20388450.96907  -2681325.82307      2168.11307        44.43607
R23  19022355.79708    471111.57808      -888.59708        47.93008
C04                    729514.20024      -665.37224        23.76724
C06  41054132.01605     63849.10605      -131.34505        34.33005
C11  24761314.59924   2871327.69624     -3471.99024        28.75424
C16  41461776.90905       -13.35305        -8.02705        34.01605
C23  22195822.35207   1837605.06807     -1936.50907        42.04107
C25  25736653.98506   3886586.78406     -3720.87506        40.22006
C27  25282527.17107  -2633323.16907      2376.95207        42.62907
C28  21875014.74206   -743903.12006       454.73606        36.46106
C34  26901581.82224   2852897.48624     -3785.75424        26.23824
C37  22673361.75807  -1269961.34407      1019.76107        43.85307
E13  24240834.42005  -1797336.88105      1501.47405        34.77205  24240829.62325  -1340442.11025      1121.07925        31.81425
E15  23689351.80307   1120367.67707     -1299.42107        41.57607                    837671.86623      -969.99723        19.91623
E18  19239815.35305   2955122.68505     -3416.60105        34.21005  19239824.04724   2208820.30724     -2551.15224        25.82724
E19                      2593.94823     -2430.24223        17.83423                                                                
E21  25139194.89806  -3708576.30706      1177.83106        40.24306                  -2790534.48522       879.62022        17.05922
E26                       -29.73023      2466.33923        19.49223                                                                
E27  23501458.07906    806271.40306      -868.27206        35.58006  23501456.28005    601564.87505      -648.44605        30.79305
E30  25710989.35214   2255986.09814     -2703.87014        28.69214                   1714229.75722     -2017.08122        14.32522
> 2021 04 08 21 28 19.0000680  0 33                      
G02  22284614.88206  -2490423.19206      2108.40306        40.32406                                                                
G03                        -1.99424       -72.19524        24.33224                                                                
G06  21009516.61407  -1168275.37907       742.73507        42.85307  21009510.91824   -874278.94524       555.34524        28.16924
G12  22730992.36105  -4867165.63605      1930.95805        34.53805                                                                
G13  24985258.66506   3221085.52206     -3862.31106        37.31206                                                                
G14  23751344.68614   3396996.28814     -3243.00214        28.37514                                                                
G15  25127784.79707   5447512.41507     -3311.73607        43.15007                                                                
G17  22435643.72705   3376899.95205     -3197.64805        33.25105                                                                
G19  20555898.24807   2177509.79407     -2245.43807        42.08607                                                                
G24  20957450.75907   -196480.09407      -145.41907        47.05007  20957451.35805   -150294.61205      -108.43305        32.27605
R14  21633011.47806  -3352038.89906      2718.81806        37.50806
R13  19296667.69504     75409.71504      -390.11104        28.20504
R12  21504290.78905   4198803.82105     -3576.26605        34.40905
R24  20387931.72907  -2683493.69707      2167.66507        44.84607
R23  19022407.66108    472000.56308      -889.35008        47.83608
C04                    730178.63524      -665.37224        25.25624
C06  41054040.57905     63980.53505      -131.71905        35.10405
C11  24761857.82325   2874800.09725     -3471.74425        29.88725
C16  41461650.39725        -4.88125        -6.48925        30.69525
C23  22196074.17807   1839541.88307     -1936.95207        42.68707
C25  25737246.67506   3890307.93706     -3721.43906        38.96806
C27  25281949.77007  -2635699.96607      2376.84607        44.23807
C28  21874809.08506   -744357.76906       454.35306        36.62706
C34                   2856683.62724     -3789.62924        25.80024
C37  22673044.87807  -1270981.00107      1019.55707        42.80707
E13  24240430.89906  -1798837.94706      1500.99306        36.31706  24240424.00425  -1341562.94725      1120.25625        31.72225
E15  23689476.81606   1121666.97906     -1299.45806        40.96006                    838639.51322      -968.83522        17.38422
E18  19240348.98405   2958539.97905     -3417.89205        34.23505  19240354.38024   2211372.19124     -2551.78324        26.44124
E19                      2594.01123     -2431.21723        18.50723                                                                
E21  25138846.23906  -3709754.10306      1177.95506        40.03106                  -2791415.29621       881.31621        12.00821
E26                       -29.78823      2466.33923        21.76223                                                                
E27  23501502.74806    807139.80606      -868.48306        36.71206  23501502.74805    602213.32605      -648.54405        30.76705
E30  25711386.27804   2258690.03504     -2703.82404        29.17104                   1716249.42023     -2018.68223        19.95523
> 2021 04 08 21 28 20.0000676  0 33                      
G02  22284091.44506  -2492531.75106      2108.66606        41.03606                                                                
G03                        -1.99223       -72.19523        19.50523                                                                
G06  21009253.99607  -1169017.71007       742.23807        43.47707  21009250.69824   -874833.21724       554.51224        29.31124
G12  22730498.90305  -4869097.31205      1931.99005        34.06605                                                                
G13  24985872.64006   3224947.44706     -3861.70006        36.75106                                                                
G14  23751827.05224   3400240.21424     -3241.76524        27.84424                                                                
G15  25128294.44407   5450824.03907     -3311.49607        43.30907                                                                
G17  22436134.48705   3380097.38405     -3197.80705        33.43505                                                                
G19  20556205.83507   2179755.35207     -2245.70307        41.63307                                                                
G24  20957360.22107   -196334.62307      -145.49307        47.00007  20957358.42325   -150186.10825      -107.91525        32.20525
R14  21632381.91406  -3354757.53006      2718.11706        36.97106
R13  19296639.81414     75799.92514      -387.36314        28.25814
R12  21504829.51605   4202380.28505     -3576.33405        31.38005
R24  20387406.19207  -2685661.16007      2167.32207        45.31307
R23  19022449.63208    472890.22908      -889.89008        47.86208
C04                    730851.33524      -665.37224        26.61324
C06  41053946.14406     64111.94206      -131.15006        35.70706
C11  24762405.24425   2878272.73725     -3472.42525        32.02425
C16  41461530.78024         3.56624        -8.91224        28.73524
C23  22196329.60107   1841478.92007     -1936.83607        43.17207
C25  25737843.26206   3894029.01406     -3720.89406        39.50706
C27  25281373.56907  -2638076.74107      2376.98807        44.69107
C28  21874604.92606   -744812.25906       454.50506        37.24906
C34  26902803.77624   2860469.44024     -3791.00324        25.83824
C37  22672730.39507  -1272000.42807      1019.55107        42.66207
E13  24240024.68006  -1800338.78906      1500.95706        36.43406  24240019.28405  -1342683.77105      1120.51805        31.99405
E15  23689604.52806   1122966.66406     -1299.76506        40.86906                    839610.46523      -969.86423        20.04923
E18  19240878.41705   2961958.19205     -3418.78405        34.55105  19240885.31224   2213924.73924     -2552.79524        26.29724
E19                      2593.91622     -2431.21722        12.91322                                                                
E21  25138508.97206  -3710931.95806      1177.64206        39.92206                  -2792294.77623       880.36323        18.93723
E26                       -29.69223      2466.33923        22.84623                                                                
E27  23501547.11706    808008.18606      -868.36306        37.54606  23501548.91604    602861.87804      -648.31804        29.32104
E30  25711783.20304   2261394.09204     -2703.75204        28.09604                   1718265.50123     -2016.18623        21.75723
> 2021 04 08 21 28 21.0000671  0 33                      
G02  22283539.22706  -2494639.90706      2107.97706        41.05506                                                                
G03                        -1.97624       -73.17124        23.89624                                                                
G06  21008960.79906  -1169759.58106       741.60706        41.05506  21008958.40124   -875387.28524       554.51624        29.40024
G12  22729983.56006  -4871028.85006      1931.19906        36.90206                                                                
G13  24986456.33606   3228809.19106     -3861.64406        36.69606                                                                
G14  23752308.81924   3403487.42924     -3244.74124        27.04624                                                                
G15  25128772.91307   5454135.54607     -3311.59407        43.32707                                                                
G17  22436591.97105   3383294.67205     -3197.55305        34.70905                                                                
G19  20556482.84307   2182001.21607     -2246.38007        41.86507                                                                
G24  20957238.50607   -196188.61207      -146.21107        46.97107  20957236.10705   -150076.88805      -110.27705        32.78405
R14  21631725.66806  -3357476.27806      2718.42406        37.34506
R13  19296557.37104     76190.87104      -391.76804        28.55904
R12  21505311.88224   4205959.18024     -3575.67124        27.70724
R24  20386852.17607  -2687828.02007      2166.34507        44.37507
R23  19022465.52108    473780.66808      -891.41508        47.80508
C04                    731512.55124      -665.37224        24.83924
C06  41053822.03006     64243.58606      -132.41206        35.67906
C11  24762917.28905   2881745.32005     -3472.93505        30.71505
C16  41461384.48125        12.23125        -9.36925        29.60825
C23  22196549.04907   1843416.48407     -1938.19507        43.53007
C25  25738406.57206   3897750.31506     -3722.13506        40.18606
C27  25280766.49007  -2640453.45007      2376.46707        44.54207
C28  21874370.78806   -745266.05106       452.54506        36.72706
C34  26903392.26924   2864255.03224     -3784.79124        26.91724
C37  22672386.23407  -1273019.61807      1019.00207        42.05307
E13  24239589.08206  -1801839.32506      1500.17206        36.43306  24239583.68505  -1343804.27105      1119.86005        31.94805
E15  23689702.86006   1124266.69606     -1300.77206        41.04906                    840581.35524      -969.85724        23.50424
E18  19241378.17105   2965377.69905     -3421.11905        34.67705  19241384.16704   2216477.88004     -2553.65204        28.19004
E19                      2593.97323     -2431.21723        17.90023                                                                
E21  25138130.63406  -3712109.90206      1177.70406        37.91506                  -2793175.28422       879.94422        16.95922
E26                       -29.75024      2466.33924        24.43624                                                                
E27  23501566.30406    808876.82106      -869.42106        38.58306  23501563.00605    603510.41005      -648.52105        29.83905
E30  25712133.66024   2264098.11724     -2705.44024        27.64124                   1720286.29923     -2018.12923        19.10723
> 2021 04 08 21 28 22.0000667  0 33                      
G02  22283019.68607  -2496747.73307      2107.72207        42.46207                                                                
G03                        -1.96623       -74.14623        20.14123                                                                
G06  21008699.38006  -1170500.62606       740.87406        40.88906  21008698.48104   -875940.73304       553.71504        29.20004
G12  22729499.39505  -4872960.21305      1931.36205        35.39505                                                                
G13  24987070.91106   3232670.91606     -3861.56306        38.02506                                                                
G14  23752804.97525   3406735.40425     -3242.97125        31.50625                                                                
G15  25129281.66007   5457447.20007     -3311.49907        42.17007                                                                
G17  22437075.23605   3386492.28205     -3197.79805        33.31705                                                                
G19  20556788.03206   2184247.55206     -2246.37606        40.45206                                                                
G24  20957148.26807   -196041.83807      -146.92507        46.61007  20957143.47125   -149967.35425      -109.58325        32.73125
R14  21631094.60506  -3360194.60006      2718.32006        36.46806
R13  19296508.50514     76582.57114      -394.64314        27.20014
R12  21505940.84725   4209543.10225     -3577.88525        30.79425
R24  20386329.93707  -2689994.25607      2166.09107        44.65507
R23  19022517.08508    474671.95808      -891.54508        48.37608
C04                    732183.24124      -665.37224        23.55224
C06  41053726.69606     64375.27206      -131.74506        35.63606
C11  24763468.00805   2885218.12805     -3472.64405        31.38305
C16  41461272.65825        20.95925        -9.03325        30.20725
C23  22196802.97307   1845354.39407     -1938.03007        43.87207
C25  25738999.86106   3901471.65506     -3721.27006        39.62706
C27  25280191.78707  -2642829.83907      2376.61807        42.96007
C28  21874164.23106   -745719.65406       453.40706        38.23306
C34  26903996.35124   2868041.04624     -3781.14824        26.32724
C37  22672071.15207  -1274038.35807      1018.96107        42.44307
E13  24239184.36206  -1803339.42106      1499.95106        35.73306  24239178.06605  -1344924.53805      1120.01105        33.30905
E15  23689830.87107   1125567.21607     -1300.60107        41.92107  23689830.87123    841552.63523      -970.52123        23.27323
E18  19241908.20406   2968798.11806     -3421.18006        35.67406  19241913.90024   2219032.40624     -2552.48124        27.65424
E19                      2593.87823     -2431.21723        18.86123                                                                
E21  25137784.07406  -3713287.63106      1177.81006        36.66506                  -2794054.68323       880.07623        21.76723
E26                       -29.65323      2466.33923        21.99623                                                                
E27  23501607.37606    809745.69406      -868.83106        38.26106  23501607.97524    604159.32124      -648.91824        29.35824
E30  25712537.18105   2266802.31405     -2704.14505        30.47605                   1722302.31223     -2018.49123        20.27623
> 2021 04 08 21 28 23.0000663  0 33                      
G02  22282498.94707  -2498855.31607      2107.42707        42.28807                                                                
G03                        -1.96423       -74.14623        17.89223                                                                
G06  21008437.36107  -1171241.24107       740.26107        42.31507  21008437.96104   -876493.65104       552.80704        29.47304
G12  22729010.43405  -4874891.59605      1931.23505        34.24405                                                                
G13  24987686.98406   3236532.27006     -3860.84306        37.63206                                                                
G14  23753304.13025   3409978.85225     -3243.84425        30.63025                                                                
G15  25129791.00807   5460758.68207     -3311.29307        42.73007                                                                
G17  22437561.49925   3389691.24525     -3199.61925        29.59925                                                                
G19  20557094.12006   2186494.14306     -2246.82106        40.76406                                                                
G24  20957054.43307   -195894.63007      -147.50307        46.94007  20957051.13505   -149857.42105      -110.14205        31.70305
R14  21630470.73706  -3362913.19306      2718.45006        36.35906
R13  19296465.03524     76970.85124      -391.39324        27.14024
R12  21506461.28725   4213121.62425     -3581.20525        30.59125
R24  20385798.70507  -2692159.99007      2165.58107        44.83107
R23  19022562.95408    475563.93608      -892.45108        48.18408
C04                    732846.17324      -665.37224        24.09224
C06  41053632.56206     64507.09406      -131.74706        36.10206
C11  24764014.23005   2888690.94705     -3472.86705        30.44705
C16  41461145.54625        29.78625        -8.95825        30.00325
C23  22197057.19707   1847292.59207     -1938.42007        42.61307
C25  25739595.54906   3905193.15406     -3721.71206        39.42806
C27  25279614.68707  -2645206.20907      2376.38307        44.29807
C28  21873956.77506   -746172.79406       452.97906        35.67006
C34  26904604.03024   2871826.75024     -3785.22324        26.67524
C37  22671753.07207  -1275056.91307      1018.48207        42.57607
E13  24238777.84306  -1804839.36106      1499.71106        35.71806  24238772.74705  -1346044.61805      1120.16405        33.37205
E15  23689957.38406   1126868.07406     -1301.05106        41.31506                    842523.87523      -972.30623        21.63023
E18  19242445.73206   2972219.76006     -3422.10506        35.72106  19242446.63124   2221587.60624     -2562.75624        24.12924
E19                      2593.94223     -2432.19323        17.63123                                                                
E21  25137437.21406  -3714465.46306      1178.01206        36.83206                  -2794935.10523       880.59123        17.70223
E26                       -29.71123      2466.33923        22.49923                                                                
E27  23501651.14506    810614.68806      -869.01006        37.40206  23501653.24404    604808.14504      -648.54804        29.28904
E30  25712930.20905   2269506.66805     -2703.92605        31.03805                   1724321.98723     -2018.49123        20.05723
> 2021 04 08 21 28 24.0000659  0 33                      
G02  22281977.90807  -2500962.50907      2106.94707        42.66707                                                                
G03                        -1.94923       -75.12223        21.11423                                                                
G06  21008177.74106  -1171981.28806       739.60306        41.29806  21008176.24205   -877046.27905       552.81605        29.84505
G12  22728526.56806  -4876823.02606      1931.09306        36.63006                                                                
G13  24988299.46006   3240393.62906     -3861.50906        36.77506                                                                
G14  23753797.58824   3413222.94524     -3241.17124        28.19824                                                                
G15  25130300.95507   5464070.11007     -3311.34507        41.89307                                                                
G17  22438041.16725   3392888.76325     -3197.05125        29.64225                                                                
G19  20557402.00707   2188741.10907     -2247.43007        41.51407                                                                
G24  20956962.69707   -195746.82907      -148.17207        47.26107  20956959.69905   -149747.01305      -110.75205        32.03805
R14  21629850.16606  -3365631.49406      2718.59006        35.94206
R13  19296417.96804     77363.55004      -393.72504        28.00604
R12  21507035.68905   4216699.57505     -3577.81905        31.49405
R24  20385271.97007  -2694325.13407      2164.80707        44.63207
R23  19022605.22408    476456.69908      -893.25008        47.81608
C04                    733515.87324      -665.37224        26.13524
C06  41053538.12706     64638.98706      -132.23006        36.23106
C11  24764562.25005   2892163.84205     -3473.21905        29.71705
C16  41461030.42625        38.79025        -9.54225        31.09625
C23  22197308.72307   1849231.19707     -1939.07807        43.91807
C25  25740193.93506   3908914.71306     -3721.80506        40.15206
C27  25279039.38507  -2647582.48207      2376.13607        45.44707
C28  21873752.01706   -746625.59006       452.32606        36.50406
C34  26905200.91724   2875612.26624     -3791.41724        26.68624
C37  22671438.29007  -1276075.17107      1018.03007        43.02207
E13  24238373.42306  -1806338.98206      1499.56006        36.08206  24238367.72705  -1347164.44305      1119.56105        32.96105
E15  23690088.09307   1128169.37807     -1301.40707        41.74707                    843490.46223      -970.91523        22.64823
E18  19242975.46505   2975642.49805     -3423.56205        35.32205  19242976.36504   2224143.32404     -2556.48604        27.08904
E19                      2593.99923     -2432.19323        18.45023                                                                
E21  25137096.05106  -3715643.20206      1177.78906        37.18706                  -2795814.34122       879.25822        15.07622
E26                       -29.76923      2466.33923        21.57023                                                                
E27  23501700.31106    811483.79006      -869.21706        37.18706  23501699.71205    605457.23805      -648.80205        29.75605
E30  25713327.43405   2272211.22005     -2705.98605        30.11605                   1726338.66623     -2019.48223        18.45423
> 2021 04 08 21 28 25.0000654  0 33                      
G02  22281426.88907  -2503069.51507      2106.63607        43.93107                                                                
G03                        -1.95221       -75.12221        12.00021                                                                
G06  21007886.34306  -1172720.85806       739.43706        37.35606  21007885.74324   -877598.54224       551.68924        29.27124
G12  22728006.72807  -4878754.40507      1931.28407        41.70107                                                                
G13  24988885.85406   3244254.62006     -3860.74906        37.57806                                                                
G14  23754268.56224   3416467.54124     -3242.48324        25.92224                                                                
G15  25130779.42307   5467381.45107     -3311.47107        42.43507                                                                
G17  22438490.55605   3396086.93205     -3197.66005        29.56905                                                                
G19  20557679.91407   2190988.29407     -2247.42307        42.74607                                                                
G24  20956841.28108   -195598.51108      -148.65708        47.75408  20956839.18205   -149636.20805      -111.44405        34.72905
R14  21629175.93306  -3368349.57806      2717.85106        37.12106
R13  19296360.70714     77756.53214      -388.17814        27.04614
R12  21507550.73205   4220277.86105     -3578.61605        32.16505
R24  20384718.55307  -2696489.85807      2164.20507        43.90107
R23  19022626.80908    477350.17308      -894.00508        48.05908
C04                    734180.62724      -665.37224        26.34524
C06  41053414.01306     64770.90406      -131.87106        36.13306
C11  24765082.99024   2895636.64124     -3471.07024        27.31024
C16  41460886.52625        47.83425        -9.15525        34.73925
C23  22197531.16907   1851170.14307     -1939.30107        44.64007
C25  25740754.84606   3912636.32806     -3721.72906        41.01006
C27  25278433.80407  -2649958.70207      2375.98807        44.69507
C28  21873517.57906   -747078.07406       452.33906        37.38706
C34  26905794.50624   2879397.79024     -3781.33624        27.94724
C37  22671090.23107  -1277093.21707      1017.71507        44.83107
E13  24237939.02406  -1807838.29306      1498.75506        36.04206  24237931.82905  -1348284.01905      1118.50505        32.30105
E15  23690186.42507   1129471.00507     -1301.87007        41.59607  23690185.22623    844462.55523      -970.36923        22.19523
E18  19243471.92206   2979066.21006     -3424.32006        36.68106  19243478.21705   2226699.98005     -2557.04805        30.57305
E19                      2593.90422     -2432.19322        13.75122                                                                
E21  25136720.71006  -3716821.00506      1177.82706        35.51906                  -2796693.74923       880.00023        20.96323
E26                       -29.67323      2466.33923        21.70823                                                                
E27  23501717.69906    812353.04106      -869.68706        35.65406  23501714.10205    606106.36905      -649.54305        30.80605
E30  25713689.58305   2274915.59205     -2704.88405        30.66605                   1728356.63922     -2018.79622        15.81922
> 2021 04 08 21 28 26.0000650  0 33                      
G02  22280906.74907  -2505176.12707      2106.55407        43.51207                                                                
G03                        -1.93623       -76.09723        21.61523                                                                
G06  21007627.02206  -1173459.70706       738.48206        37.18006  21007625.52304   -878150.27204       551.24104        29.32804
G12  22727517.46707  -4880685.74007      1931.44107        41.93507                                                                
G13  24989500.72906   3248115.56006     -3860.62306        37.89606                                                                
G14  23754771.01424   3419713.53224     -3243.96924        26.36024                                                                
G15  25131290.27007   5470692.76707     -3311.22607        42.26207                                                                
G17  22438980.71705   3399284.60705     -3197.85505        30.22205                                                                
G19  20557988.10107   2193235.91707     -2247.58007        43.03607                                                                
G24  20956748.04507   -195449.55207      -149.03307        47.22507  20956747.44605   -149525.06705      -111.18505        35.24505
R14  21628555.06306  -3371067.66206      2718.24606        38.83706
R13  19296326.83114     78150.46514      -393.99514        27.01114
R12  21508097.55405   4223856.69105     -3578.97405        33.11005
R24  20384195.11507  -2698653.80407      2163.66207        43.08707
R23  19022667.88108    478244.46608      -894.60808        48.11708
C04                    734853.08124      -665.37224        24.54224
C06  41053319.57806     64903.03906      -132.24906        35.98306
C11  24765621.71724   2899107.43524     -3478.02424        27.21824
C16  41460766.30925        56.95725        -9.00025        34.96625
C23  22197781.49607   1853109.52707     -1939.41407        44.08107
C25  25741353.23206   3916358.13506     -3721.76306        41.20706
C27  25277857.90307  -2652334.73707      2376.14307        44.59507
C28  21873311.92106   -747530.08306       451.90406        39.02706
C34  26906413.57724   2883183.31724     -3785.62324        28.17624
C37  22670776.04807  -1278110.88807      1017.53407        44.77907
E13  24237535.80306  -1809337.41706      1499.37006        36.36106  24237527.10905  -1349403.51305      1119.38005        32.18405
E15  23690312.03807   1130773.11307     -1302.17907        41.60607  23690314.13723    845433.85123      -970.66623        23.25123
E18  19244008.85006   2982491.22406     -3425.53406        36.20906  19244010.04905   2229257.63605     -2558.15105        30.19405
E19                      2593.96123     -2432.19323        19.98223                                                                
E21  25136376.24905  -3717998.75305      1177.85805        34.76305                  -2797572.99223       879.58123        23.16623
E26                       -29.73123      2466.33923        21.80223                                                                
E27  23501762.96805    813222.59505      -869.86105        35.42005  23501759.67005    606755.61305      -648.70105        30.20105
E30  25714085.30925   2277620.18825     -2704.39525        30.57225                   1730374.66222     -2019.31122        16.32222
> 2021 04 08 21 28 27.0000646  0 33                      
G02  22280386.01007  -2507282.45007      2106.03207        43.04807                                                                
G03                        -1.93921       -76.09721        12.00021                                                                
G06  21007370.10006  -1174198.06906       738.13706        38.38506  21007365.60304   -878701.70004       550.95104        28.97704
G12  22727030.30407  -4882616.97907      1930.99307        42.02607                                                                
G13  24990113.80406   3251976.29906     -3860.81706        37.94906                                                                
G14                   3422962.35124     -3246.03524        25.08424                                                                
G15  25131800.81607   5474004.01307     -3311.23707        42.37907                                                                
G17  22439469.97805   3402482.43005     -3198.16005        31.53505                                                                
G19  20558292.69007   2195483.88607     -2247.92207        42.37907                                                                
G24  20956656.90808   -195300.03908      -149.84408        47.96408  20956656.30905   -149413.39805      -111.66905        35.20705
R14  21627920.10206  -3373785.63706      2717.83606        39.50706
R13  19296259.97724     78544.56224      -391.42824        27.68824
R12  21508650.37105   4227435.82205     -3579.24205        34.60805
R24  20383662.38407  -2700817.28107      2163.07507        42.67707
R23  19022720.04508    479139.52608      -895.35108        48.29208
C04                    735514.34024      -665.37224        24.40724
C06  41053225.14406     65035.24606      -132.16706        36.11606
C11  24766186.82624   2902580.43624     -3472.98324        28.65624
C16  41460649.39006        66.22406        -9.33706        35.56506
C23  22198038.41807   1855049.25907     -1939.92307        44.10207
C25  25741945.62206   3920080.02506     -3721.97906        40.79806
C27  25277281.40207  -2654710.64407      2375.73507        44.60107
C28  21873102.06706   -747981.61006       451.48006        38.58906
C34  26907026.35324   2886968.67524     -3785.56324        28.40024
C37  22670461.26607  -1279128.31507      1017.35807        45.36007
E13  24237131.08306  -1810836.15806      1499.11306        36.28006  24237122.09005  -1350522.70305      1118.74805        32.45605
E15  23690439.15007   1132075.58107     -1302.71507        41.74407  23690441.84824    846406.53324      -971.47524        23.75524
E18  19244539.78206   2985917.15406     -3426.63706        36.08106  19244542.78005   2231816.02905     -2559.24005        30.60305
E19                      2594.02523     -2433.16823        19.96223                                                                
E21  25136033.28605  -3719176.46705      1177.57505        35.25705  25136040.48123  -2798454.97823       879.75323        23.23323
E26                       -29.78823      2466.33923        21.51423                                                                
E27  23501808.23706    814092.24606      -869.76506        36.06606  23501805.83825    607405.14525      -649.66025        30.27725
E30  25714478.63705   2280324.97605     -2704.65605        31.50505                   1732381.89923     -2018.30123        19.53023
> 2021 04 08 21 28 28.0000641  0 33                      
G02  22279833.49207  -2509388.40607      2105.82807        42.90907                                                                
G03                        -1.92421       -77.07321        12.00021                                                                
G06  21007078.70206  -1174935.79006       737.69906        38.01406  21007075.70405   -879252.66505       551.18705        30.50705
G12  22726511.06406  -4884548.19306      1931.63306        40.61806                                                                
G13  24990700.19806   3255836.82606     -3860.40906        38.38106                                                                
G14                   3426210.03223     -3246.14323        23.18023                                                                
G15  25132280.78407   5477315.24007     -3311.04007        42.85407                                                                
G17  22439928.36105   3405680.15805     -3197.65405        31.44205                                                                
G19  20558569.09907   2197732.23107     -2248.51407        41.58007                                                                
G24  20956535.79208   -195149.89408      -150.30508        48.22408  20956534.89305   -149301.25905      -112.22405        34.99305
R14  21627259.66006  -3376503.46006      2717.84206        40.02006
R13  19296147.55524     78939.56424      -392.99124        26.29024
R12  21509188.49905   4231015.49905     -3579.88105        34.34405
R24  20383110.16607  -2702980.10607      2162.61607        44.11107
R23  19022736.53408    480035.40508      -896.21408        48.35408
C04                    736182.82224      -665.37224        23.77324
C06  41053102.52906     65167.59906      -132.35906        36.48906
C11  24766697.97224   2906053.81524     -3473.44824        29.07824
C16  41460501.59206        75.68306        -9.47906        35.51806
C23  22198259.66507   1856989.45207     -1940.30107        44.36807
C25  25742511.93006   3923802.09406     -3722.00806        40.69706
C27  25276672.22407  -2657086.44207      2375.81907        43.80507
C28  21872875.42306   -748432.82306       451.04906        37.21306
C34  26907601.05524   2890753.98124     -3782.38824        27.74624
C37  22670115.60607  -1280145.40907      1017.09607        44.81507
E13  24236696.68406  -1812334.46706      1498.32406        35.81106  24236686.49105  -1351641.68805      1119.27005        32.72805
E15  23690538.98106   1133378.48606     -1303.01906        41.33606  23690540.18024    847379.50624      -971.24724        26.40624
E18  19245047.63106   2989344.34406     -3427.62006        36.68006  19245043.73305   2234375.22205     -2559.44405        32.38105
E19                      2593.93023     -2433.16823        18.47923                                                                
E21  25135658.84505  -3720354.16805      1177.59105        34.41905  25135664.54224  -2799337.52424       880.17024        24.09724
E26                       -29.69223      2466.33923        18.33423                                                                
E27  23501824.12606    814962.13406      -869.84906        36.32906  23501820.82805    608054.67705      -649.02505        31.35905
E30  25714841.98505   2283029.79105     -2704.76705        31.46305                   1734413.70923     -2018.89123        20.05923
> 2021 04 08 21 28 29.0000637  0 33                      
G02  22279314.85107  -2511494.00807      2105.29307        43.07507                                                                
G03                        -1.92221       -77.07321        12.00021                                                                
G06  21006821.18006  -1175672.87806       736.63906        38.17406  21006814.88505   -879803.07805       550.44805        31.31605
G12  22726024.20106  -4886479.29506      1930.90406        39.97206                                                                
G13  24991315.07306   3259697.21706     -3860.25006        37.65806                                                                
G14  23756225.60724   3429454.13324     -3245.05324        24.54424                                                                
G15  25132792.83007   5480626.46807     -3311.24107        43.14007                                                                
G17  22440417.92205   3408878.04805     -3197.90105        31.85105                                                                
G19  20558879.68407   2199980.91507     -2248.95407        43.43807                                                                
G24  20956444.35508   -194999.15108      -151.16108        48.11708  20956443.75605   -149188.69905      -112.53905        34.32405
R14  21626642.08706  -3379221.18306      2717.65406        40.84206
R13  19296105.28424     79335.07024      -393.94724        25.27424
R12  21509731.12305   4234595.59605     -3580.53705        33.52205
R24  20382584.03107  -2705142.35107      2161.92407        44.78807
R23  19022783.60108    480932.08008      -897.10808        48.38708
C04                    736847.08924      -665.37224        25.97424
C06  41053009.29306     65300.08606      -132.66606        36.03306
C11  24767244.49325   2909527.13525     -3473.98725        29.69425
C16  41460387.67106        85.16906        -9.61506        35.70406
C23  22198511.49007   1858930.00407     -1940.67507        44.33907
C25  25743109.11606   3927524.26106     -3722.28406        40.84906
C27  25276097.82207  -2659462.04607      2375.51707        43.63807
C28  21872661.97106   -748883.59406       450.73106        39.08306
C34  26908216.82924   2894539.30624     -3785.48124        27.87824
C37  22669801.12307  -1281162.15507      1016.49707        44.52007
E13  24236291.36505  -1813832.60505      1497.86005        35.27805  24236281.47105  -1352760.38605      1118.70605        33.23705
E15  23690665.19407   1134681.81307     -1303.44007        41.88107  23690668.79124    848352.84224      -972.68924        26.77124
E18  19245570.16906   2992772.64806     -3428.91606        35.85906  19245575.56505   2236935.28205     -2560.28105        32.96205
E19                      2593.98721     -2433.16821        12.00021                                                                
E21  25135314.98405  -3721531.77305      1177.08605        34.39105  25135320.97924  -2800219.07824       880.02824        24.74424
E26                       -29.75024      2466.33924        23.98724                                                                
E27  23501869.99406    815832.19806      -870.25406        36.59606  23501866.39625    608704.50325      -650.30025        32.44925
E30  25715235.31305   2285734.73705     -2704.93305        31.01205                   1736435.75223     -2020.01623        20.26223
> 2021 04 08 21 28 30.0000633  0 33                      
G02  22278794.71107  -2513599.37807      2105.06607        43.53707                                                                
G03                        -1.91121       -78.04921        12.00021                                                                
G06  21006560.96006  -1176409.45606       736.24206        38.04406  21006554.36505   -880353.02305       549.09905        31.41305
G12  22725535.23906  -4888410.40506      1930.95606        39.94706                                                                
G13  24991929.64706   3263557.46906     -3860.22306        37.35106                                                                
G14  23756717.86624   3432698.11024     -3244.35724        23.66724                                                                
G15  25133304.57507   5483937.57107     -3311.19907        43.21807                                                                
G17  22440894.59205   3412075.99105     -3197.71305        31.13805                                                                
G19  20559186.67107   2202229.96407     -2249.53707        43.34207                                                                
G24  20956354.41808   -194847.84708      -151.83408        48.20508  20956352.01905   -149075.70305      -113.21705        34.06905
R14  21626009.82506  -3381938.75406      2717.31006        40.62106
R13  19296058.81624     79728.60724      -395.70724        25.18724
R12  21510271.04925   4238175.92625     -3580.70925        34.56525
R24  20382074.98307  -2707304.09507      2161.23207        45.29607
R23  19022829.46908    481829.52808      -897.96008        48.28608
C04                    737521.59624      -665.37224        26.16624
C06  41052912.76006     65432.62806      -132.83706        36.62006
C11  24767794.61324   2913000.48724     -3473.12624        28.18224
C16  41460268.95306        94.79006        -9.70506        35.77206
C23  22198765.41407   1860870.94107     -1941.18907        44.67607
C25  25743699.10806   3931246.51806     -3722.44406        40.99606
C27  25275522.52007  -2661837.55307      2375.23707        44.54407
C28  21872459.91106   -749333.88306       449.69506        38.36606
C34  26908828.10624   2898324.57824     -3786.36124        27.52024
C37  22669485.74207  -1282178.63807      1016.20707        44.68907
E13  24235886.94506  -1815330.37906      1497.41706        36.41106  24235876.45225  -1353878.87225      1118.33625        33.32625
E15  23690794.70407   1135985.57207     -1304.27707        42.36607  23690796.80324    849326.43824      -972.92524        25.76924
E18  19246103.50006   2996201.96006     -3429.98406        35.74506  19246108.89605   2239496.20705     -2561.53905        33.06905
E19                      2593.89923     -2434.14423        20.21823                                                                
E21  25134972.32105  -3722709.40805      1177.50905        34.39705  25134977.11724  -2801098.86924       880.07224        25.22724
E26                       -29.65324      2466.33924        23.57524                                                                
E27  23501915.56206    816702.49406      -870.74006        36.37306  23501911.96505    609354.30405      -649.49405        32.19805
E30  25715631.63905   2288439.83005     -2705.12005        30.76405                   1738452.65222     -2018.60522        16.88122
> 2021 04 08 21 28 31.0000629  0 33                      
G02  22278273.97207  -2515704.32907      2104.86907        43.52907                                                                
G03                        -1.92323       -77.07323        19.95223                                                                
G06  21006297.74306  -1177145.41306       735.74506        38.70506  21006294.74525   -880902.67325       549.73425        29.56825
G12  22725048.37606  -4890341.43306      1931.10706        41.17606                                                                
G13  24992540.32406   3267417.55306     -3859.95006        36.02306                                                                
G14  23757215.82224   3435942.61824     -3244.12624        24.55424                                                                
G15  25133815.42207   5487248.73407     -3311.16107        43.23207                                                                
G17  22441380.25625   3415274.05125     -3197.83125        30.81125                                                                
G19  20559495.45707   2204479.36307     -2249.52807        43.48207                                                                
G24  20956264.48008   -194695.90508      -152.30608        48.08108  20956261.18205   -148962.21105      -113.80105        34.52405
R14  21625371.26706  -3384656.15906      2717.54506        40.68006
R13  19296027.63824     80122.70824      -401.21924        24.97824
R12  21510819.96905   4241756.74305     -3580.71205        33.95705
R24  20381555.44307  -2709465.21307      2160.87407        45.02807
R23  19022880.73408    482727.83108      -898.77308        48.21308
C04                    738183.15224      -665.37224        26.65824
C06  41052818.62506     65565.33906      -132.74506        36.45506
C11  24768342.93324   2916473.99524     -3473.24924        27.63624
C16  41460151.73406       104.59506        -9.68606        36.68206
C23  22199015.14207   1862812.30707     -1941.43907        43.39207
C25  25744296.59406   3934968.93406     -3722.36706        41.03006
C27  25274947.81807  -2664212.89207      2375.26407        45.05107
C28  21872249.45706   -749783.83306       449.81506        38.63706
C34  26909457.97024   2902109.91824     -3784.04924        26.69824
C37  22669170.96007  -1283194.78307      1016.08207        45.50907
E13  24235479.22706  -1816827.80506      1497.32106        37.56006  24235471.73205  -1354997.06205      1117.93405        32.89605
E15  23690922.71507   1137289.76707     -1304.42607        42.24307  23690924.51424    850300.25224      -973.60424        23.83124
E18  19246641.62706   2999632.49806     -3430.71306        36.71606  19246642.82605   2242058.02305     -2562.61505        31.98505
E19                      2593.94222     -2432.19322        13.21022                                                                
E21  25134628.45905  -3723886.91605      1177.31405        34.85005  25134633.25524  -2801978.20124       880.68824        24.87024
E26                       -29.71724      2467.31524        23.52124                                                                
E27  23501959.93206    817572.98406      -870.50306        36.17306  23501957.83305    610004.38405      -650.01705        31.27305
E30  25716028.86405   2291145.03005     -2705.25705        30.36705                   1740472.18522     -2019.52022        16.82222
> 2021 04 08 21 28 32.0000624  0 33                      
