     2.11           OBSERVATION DATA    M (MIXED)           RINEX VERSION / TYPE
RTCM2RINEX 1.2.19   NRCan               20210428 13:01:09UTCPGM / RUN BY / DATE
gfzrnx-1.11-7352    FILE CONVERSION     20210428 130110 UTC COMMENT
ALGO CACS-GSD 883160 Algonquin Park ON Canada               MARKER NAME
40104M002                                                   MARKER NUMBER
ACSOPS              NRCan                                   OBSERVER / AGENCY
3015995             SEPT POLARX5        5.3.2               REC # / TYPE / VERS
303                 AOAD/M_T        NONE                    ANT # / TYPE
   918129.4000 -4346071.2000  4561977.8000                  APPROX POSITION XYZ
        0.1000        0.0000        0.0000                  ANTENNA: DELTA H/E/N
     1     1                                                WAVELENGTH FACT L1/2
GPS -    L1 Phase aligned to CA and L2 aligned to P2        COMMENT
GLONASS- L1 Phase aligned to C1 and L2 aligned to P2        COMMENT
    18                  GPS                                 LEAP SECONDS
     8    C1    C2    L1    L2    P1    P2    S1    S2      # / TYPES OF OBSERV
    17                                                      # OF SATELLITES
   G03   900   900   900   900   900   900   900   900      PRN / # OF OBS
   G04   900   900   900   900   900   900   900   900      PRN / # OF OBS
   G07   900   900   900   900   900   900   900   900      PRN / # OF OBS
   G08   900   900   900   900   900   900   900   900      PRN / # OF OBS
   G09   900   900   900   900   900   900   900   900      PRN / # OF OBS
   G16   900         900   900   900   900   900   900      PRN / # OF OBS
   G26   900   900   900   900   900   900   900   900      PRN / # OF OBS
   G27   900   900   900   900   900   900   900   900      PRN / # OF OBS
   G31   900   900   900   900   900   900   900   900      PRN / # OF OBS
   R02   900   900   900   900   900   900   900   900      PRN / # OF OBS
   R03   900   900   900   900   900   900   900   900      PRN / # OF OBS
   R04   900   900   900   900   900   900   900   900      PRN / # OF OBS
   R12   900   900   900   900   900   900   900   900      PRN / # OF OBS
   R13   900   900   900   900   900   900   900   900      PRN / # OF OBS
   R14   900   900   900   900   900   900   900   900      PRN / # OF OBS
   R21   900   900   900   900   900   900   900   900      PRN / # OF OBS
   R22   215   215   215   215   215   215   215   215      PRN / # OF OBS
     1.000                                                  INTERVAL
  2021     4    28    12    45    0.0000000     GPS         TIME OF FIRST OBS
  2021     4    28    12    59   59.0000000     GPS         TIME OF LAST OBS
                                                            END OF HEADER
 21 04 28 12 45 00.0000000  0 16G03G04G07G08G09G16G26G27G31R02R03R04
                                R12R13R14R21
  24621036.204    24621039.897   129384391.4484  100818992.4754   24621036.035
  24621039.374          38.370          21.500
  20533964.773    20533965.698   107906707.1504   84083144.3674   20533964.477
  20533965.519          49.810          45.180
  24807490.223    24807488.997   130364236.3224  101582510.2764   24807489.754
  24807488.693          39.370          21.620
  24746595.255    24746600.746   130044230.6704  101333173.7514   24746595.001
  24746598.180          35.060          12.620
  21929669.096    21929671.198   115241190.4074   89798337.3414   21929668.516
  21929670.576          47.680          39.810
  19999347.725                   105097290.6924   81893993.8364   19999346.822
  19999346.683          48.810          46.370
  20908605.127    20908608.158   109875474.6664   85617265.0394   20908604.627
  20908608.221          49.810          44.680
  22457358.916    22457361.934   118014239.3974   91959159.1034   22457358.268
  22457360.982          45.370          35.430
  23626138.926    23626139.422   124156192.1804   96745083.5194   23626138.543
  23626139.083          42.250          40.370
  22464515.401    22464520.058   119874938.650    93236067.942    22464515.544
  22464520.228          47.060          41.310
  20094049.343    20094054.861   107565026.554    83661693.207    20094049.245
  20094054.811          52.930          50.560
  21373835.838    21373841.101   114455954.038    89021307.713    21373835.780
  21373841.418          49.370          46.310
  21245269.221    21245275.096   113488435.831    88268794.678    21245270.084
  21245275.181          49.310          46.870
  19544818.789    19544822.670   104368272.564    81175335.179    19544818.355
  19544822.822          43.810          46.370
  22213564.074    22213568.465   118410813.878    92097311.871    22213564.127
  22213568.823          47.430          44.500
  23243584.585    23243590.337   124381111.454    96740902.057    23243584.120
  23243591.124          43.180          42.060
 21 04 28 12 45 01.0000000  0 16G03G04G07G08G09G16G26G27G31R02R03R04
                                R12R13R14R21
  24621654.513    24621658.171   129387641.1184  100821524.6824   24621654.344
  24621657.759          38.430          21.560
  20533960.811    20533961.656   107906686.5004   84083128.2774   20533960.515
  20533961.597          49.750          45.250
  24806931.892    24806930.800   130361304.1304  101580225.4434   24806931.423
  24806930.725          39.250          21.810
  24745844.443    24745849.500   130040283.9604  101330098.4144   24745844.184
  24745847.153          34.930          12.870
  21929254.506    21929256.607   115239011.9464   89796639.8394   21929253.925
  21929256.039          47.560          39.870
  19999399.994                   105097565.4474   81894207.9314   19999399.091
  19999398.970          48.810          46.430
  20908983.216    20908986.302   109877461.6324   85618813.3224   20908982.717
  20908986.333          49.810          44.750
  22456713.625    22456716.549   118010848.6894   91956516.9934   22456712.977
  22456715.767          45.310          35.560
  23626695.339    23626696.215   124159116.0394   96747361.8504   23626694.956
  23626695.487          42.060          40.430
  22465346.318    22465350.993   119879373.439    93239517.240    22465346.546
  22465351.283          46.930          41.120
  20094358.963    20094364.632   107566684.486    83662982.712    20094358.967
  20094364.547          53.000          50.430
  21373391.917    21373397.038   114453576.480    89019458.502    21373391.703
  21373397.373          49.370          46.370
  21245775.744    21245781.664   113491141.747    88270899.277    21245776.598
  21245781.700          49.430          47.120
  19544787.761    19544791.360   104368106.373    81175205.920    19544787.206
  19544791.731          43.870          46.180
  22213023.517    22213028.159   118407934.011    92095071.974    22213023.928
  22213028.548          47.120          44.430
  23243950.301    23243956.053   124383068.250    96742424.010    23243949.764
  23243956.710          43.120          42.000
 21 04 28 12 45 02.0000000  0 16G03G04G07G08G09G16G26G27G31R02R03R04
                                R12R13R14R21
  24622272.737    24622276.659   129390890.8554  100824056.9354   24622272.568
  24622276.225          38.310          21.560
  20533957.010    20533957.765   107906666.5054   84083112.6954   20533956.715
  20533957.792          49.810          45.250
  24806373.788    24806372.702   130358371.9264  101577940.6074   24806373.319
  24806372.742          39.180          21.930
  24745093.421    24745098.362   130036337.2644  101327023.0684   24745093.158
  24745096.113          35.060          13.310
  21928839.977    21928842.105   115236833.9914   89794942.7324   21928839.396
  21928841.600          47.620          39.930
  19999452.339                   105097840.8144   81894422.5024   19999451.432
  19999451.377          48.870          46.500
  20909361.453    20909364.525   109879449.0034   85620361.9234   20909360.948
  20909364.516          49.870          44.750
  22456068.455    22456071.201   118007458.3274   91953875.1524   22456067.803
  22456070.610          45.250          35.560
  23627251.529    23627252.499   124162040.0094   96749640.2664   23627251.145
  23627251.922          42.000          40.430
  22466177.346    22466182.411   119883808.446    93242966.680    22466177.660
  22466182.455          46.930          41.310
  20094668.788    20094674.596   107568343.288    83664272.888    20094668.878
  20094674.457          53.060          50.500
  21372948.126    21372953.189   114451199.655    89017609.862    21372947.854
  21372953.551          49.500          46.500
  21246282.365    21246288.295   113493847.848    88273004.027    21246283.125
  21246288.286          49.560          47.120
  19544756.584    19544760.394   104367940.616    81175076.996    19544756.147
  19544760.662          43.930          46.180
  22212482.844    22212487.862   118405054.370    92092832.251    22212483.689
  22212488.372          47.060          44.430
  23244316.147    23244321.867   124385025.857    96743946.588    23244315.534
  23244322.704          43.250          41.870
 21 04 28 12 45 03.0000000  0 16G03G04G07G08G09G16G26G27G31R02R03R04
                                R12R13R14R21
  24622891.266    24622895.075   129394140.6654  100826589.2474   24622891.092
  24622894.776          38.310          21.870
  20533953.330    20533953.969   107906647.1544   84083097.6164   20533953.034
  20533954.116          49.870          45.310
  24805815.569    24805814.889   130355439.7074  101575655.7694   24805815.096
  24805814.715          39.060          21.930
  24744342.792    24744346.982   130032390.5594  101323947.6814   24744342.524
  24744345.067          35.000          12.870
  21928425.560    21928427.724   115234656.5214   89793246.0014   21928424.976
  21928427.242          47.500          39.930
  19999504.791                   105098116.7894   81894637.5474   19999503.884
  19999503.892          48.810          46.430
  20909739.703    20909742.896   109881436.7454   85621910.8124   20909739.198
  20909742.775          49.810          44.750
  22455423.267    22455425.981   118004068.3134   91951233.5814   22455422.615
  22455425.493          45.120          35.560
  23627807.830    23627808.907   124164964.1194   96751918.7934   23627807.446
  23627808.375          41.810          40.500
  22467008.478    22467013.810   119888243.662    93246416.291    22467008.684
  22467013.591          46.870          41.620
  20094978.841    20094984.596   107570002.951    83665563.740    20094978.891
  20094984.506          53.250          50.560
  21372504.461    21372509.345   114448823.606    89015761.821    21372504.117
  21372509.810          49.500          46.310
  21246789.023    21246794.979   113496554.142    88275108.926    21246789.684
  21246794.961          49.680          47.060
  19544725.712    19544729.240   104367775.272    81174948.396    19544725.158
  19544729.691          43.810          46.310
  22211942.498    22211947.699   118402174.955    92090592.705    22211943.495
  22211948.110          47.060          44.430
  23244681.858    23244687.906   124386984.258    96745469.790    23244681.604
  23244688.760          43.180          41.810
 21 04 28 12 45 04.0000000  0 16G03G04G07G08G09G16G26G27G31R02R03R04
                                R12R13R14R21
  24623509.561    24623513.849   129397390.5374  100829121.6134   24623509.387
  24623513.236          38.370          21.810
  20533949.788    20533950.414   107906628.4484   84083083.0404   20533949.493
  20533950.557          49.750          45.310
  24805257.466    24805257.162   130352507.4684  101573370.9044   24805256.997
  24805256.705          38.680          21.810
  24743592.105    24743595.731   130028443.8614  101320872.3314   24743591.846
  24743594.014          35.180          13.000
  21928011.202    21928013.406   115232479.5544   89791549.6644   21928010.621
  21928012.990          47.370          39.930
  19999557.480                   105098393.3754   81894853.0684   19999556.577
  19999556.527          48.870          46.500
  20910118.074    20910121.320   109883424.8744   85623460.0034   20910117.574
  20910121.101          49.750          44.750
  22454778.142    22454780.739   118000678.6434   91948592.2814   22454777.489
  22454780.439          45.000          35.620
  23628364.149    23628365.204   124167888.3534   96754197.4164   23628363.769
  23628364.850          41.870          40.560
  22467839.677    22467845.170   119892679.105    93249866.078    22467839.820
  22467844.884          46.870          41.310
  20095289.145    20095294.774   107571663.458    83666855.242    20095289.083
  20095294.725          53.250          50.430
  21372060.912    21372065.831   114446448.329    89013914.383    21372060.617
  21372066.243          49.500          46.250
  21247295.845    21247301.569   113499260.631    88277213.969    21247296.248
  21247301.640          49.620          47.180
  19544694.813    19544698.404   104367610.358    81174820.130    19544694.286
  19544698.828          43.750          46.370
  22211402.308    22211407.643   118399295.751    92088353.327    22211403.314
  22211408.001          47.310          44.620
  23245047.624    23245054.118   124388943.442    96746993.620    23245047.552
  23245054.865          43.120          41.680
 21 04 28 12 45 05.0000000  0 16G03G04G07G08G09G16G26G27G31R02R03R04
                                R12R13R14R21
  24624128.130    24624132.159   129400640.4804  100831654.0344   24624127.956
  24624131.720          38.430          21.930
  20533946.305    20533947.069   107906610.3884   84083068.9664   20533946.006
  20533947.114          49.680          45.370
  24804699.202    24804699.005   130349575.2304  101571086.0384   24804698.733
  24804698.700          38.500          21.810
  24742840.814    24742844.494   130024497.1414  101317796.9734   24742840.551
  24742842.951          35.120          13.060
  21927596.942    21927599.173   115230303.0864   89789853.7154   21927596.361
  21927598.829          47.310          40.060
  19999610.263                   105098670.5654   81895069.0604   19999609.356
  19999609.270          48.870          46.560
  20910496.422    20910499.722   109885413.3864   85625009.4914   20910495.917
  20910499.503          49.750          44.870
  22454133.039    22454135.712   117997289.3304   91945951.2604   22454132.386
  22454135.462          44.810          35.560
  23628920.656    23628921.635   124170812.6884   96756476.1184   23628920.281
  23628921.344          41.930          40.560
  22468670.929    22468676.216   119897114.781    93253316.039    22468671.000
  22468676.154          46.810          41.430
  20095599.552    20095605.011   107573324.807    83668147.398    20095599.440
  20095605.060          53.180          50.500
  21371617.349    21371622.662   114444073.806    89012067.536    21371617.282
  21371622.904          49.500          46.370
  21247802.614    21247808.333   113501967.280    88279319.139    21247802.905
  21247808.355          49.560          47.120
  19544664.143    19544667.702   104367445.863    81174692.189    19544663.494
  19544667.996          43.430          46.180
  22210862.168    22210867.654   118396416.767    92086114.105    22210863.129
  22210867.882          47.620          44.500
  23245413.380    23245420.330   124390903.387    96748518.006    23245413.631
  23245421.158          42.870          41.870
 21 04 28 12 45 06.0000000  0 16G03G04G07G08G09G16G26G27G31R02R03R04
                                R12R13R14R21
  24624746.730    24624750.575   129403890.4754  100834186.4944   24624746.551
  24624750.199          38.500          22.120
  20533942.919    20533943.769   107906592.9744   84083055.3964   20533942.625
  20533943.800          49.750          45.370
  24804141.210    24804141.053   130346642.9884  101568801.1694   24804140.745
  24804140.722          38.310          22.060
  24742089.769    24742093.275   130020550.4204  101314721.6274   24742089.492
  24742091.880          35.250          13.180
  21927182.816    21927185.114   115228127.1204   89788158.1574   21927182.231
  21927184.757          47.370          40.060
  19999663.158                   105098948.3724   81895285.5334   19999662.251
  19999662.143          48.870          46.560
  20910874.847    20910878.155   109887402.2894   85626559.2854   20910874.342
  20910877.977          49.870          44.870
  22453487.989    22453490.604   117993900.3594   91943310.5054   22453487.337
  22453490.551          44.810          35.680
  23629476.926    23629478.321   124173737.1644   96758754.9294   23629476.550
  23629477.864          42.000          40.680
  22469502.141    22469507.187   119901550.691    93256766.194    22469502.280
  22469507.460          46.810          41.620
  20095910.003    20095915.485   107574987.006    83669440.221    20095909.940
  20095915.556          53.180          50.430
  21371174.046    21371179.359   114441700.025    89010221.261    21371174.011
  21371179.618          49.430          46.250
  21248309.374    21248315.196   113504674.082    88281424.419    21248309.558
  21248315.048          49.430          47.180
  19544633.552    19544637.013   104367281.791    81174564.581    19544632.712
  19544637.286          43.430          46.250
  22210322.309    22210327.724   118393537.987    92083875.066    22210323.028
  22210327.800          47.810          44.560
  23245779.655    23245786.905   124392864.096    96750043.011    23245779.758
  23245787.581          42.750          41.870
 21 04 28 12 45 07.0000000  0 16G03G04G07G08G09G16G26G27G31R02R03R04
                                R12R13R14R21
  24625365.419    24625369.023   129407140.5574  100836719.0264   24625365.241
  24625368.718          38.620          22.120
  20533939.682    20533940.701   107906576.2104   84083042.3344   20533939.388
  20533940.608          49.620          45.310
  24803583.018    24803583.353   130343710.7364  101566516.2974   24803582.558
  24803582.785          38.250          21.870
  24741338.479    24741341.944   130016603.6784  101311646.2454   24741338.189
  24741340.817          35.180          13.370
  21926768.775    21926771.109   115225951.6434   89786462.9804   21926768.194
  21926770.783          47.370          39.930
  19999716.165                   105099226.7814   81895502.4754   19999715.262
  19999715.127          48.870          46.500
  20911253.428    20911256.678   109889391.5644   85628109.3694   20911252.923
  20911256.526          49.810          44.750
  22452843.052    22452845.681   117990511.7314   91940670.0194   22452842.399
  22452845.707          44.680          35.680
  23630033.397    23630034.662   124176661.7524   96761033.8274   23630033.026
  23630034.402          42.120          40.680
  22470333.451    22470338.676   119905986.832    93260216.515    22470333.581
  22470338.878          46.810          41.870
  20096220.714    20096226.155   107576650.086    83670733.726    20096220.629
  20096226.209          53.120          50.370
  21370730.828    21370736.248   114439326.986    89008375.565    21370730.904
  21370736.444          49.310          46.370
  21248816.219    21248822.005   113507381.035    88283529.827    21248816.273
  21248821.871          49.560          47.060
  19544602.689    19544606.597   104367118.157    81174437.303    19544602.005
  19544606.601          43.370          46.180
  22209782.575    22209787.695   118390659.437    92081636.198    22209782.990
  22209787.833          48.000          44.750
  23246145.863    23246153.516   124394825.580    96751568.612    23246146.297
  23246154.061          42.430          41.680
 21 04 28 12 45 08.0000000  0 16G03G04G07G08G09G16G26G27G31R02R03R04
                                R12R13R14R21
  24625983.858    24625987.350   129410390.6874  100839251.5914   24625983.680
  24625987.189          38.560          22.060
  20533936.512    20533937.719   107906560.0924   84083029.7744   20533936.213
  20533937.531          49.680          45.310
  24803024.941    24803024.994   130340778.4504  101564231.3974   24803024.481
  24803024.838          38.060          21.560
  24740587.510    24740590.581   130012656.9244  101308570.8594   24740587.211
  24740589.763          35.120          13.680
  21926354.819    21926357.193   115223776.6814   89784768.2054   21926354.243
  21926356.907          47.370          39.930
  19999769.279                   105099505.7994   81895719.8914   19999768.376
  19999768.223          48.810          46.500
  20911632.098    20911635.299   109891381.2334   85629659.7604   20911631.598
  20911635.147          49.870          44.750
  22452198.279    22452200.921   117987123.4534   91938029.8064   22452197.627
  22452200.926          44.620          35.620
  23630590.078    23630591.213   124179586.4694   96763312.8284   23630589.712
  23630590.954          42.180          40.620
  22471164.838    22471170.354   119910423.181    93263667.011    22471164.981
  22471170.295          46.750          41.870
  20096531.586    20096536.947   107578314.045    83672027.915    20096531.416
  20096536.996          53.120          50.430
  21370287.551    21370293.342   114436954.681    89006530.433    21370287.940
  21370293.423          49.180          46.060
  21249323.212    21249328.810   113510088.184    88285635.386    21249323.069
  21249328.685          49.750          47.250
  19544572.005    19544576.266   104366954.956    81174310.368    19544571.504
  19544576.042          43.370          46.120
  22209242.962    22209247.907   118387781.119    92079397.508    22209242.988
  22209247.831          48.120          44.430
  23246512.371    23246520.359   124396787.852    96753094.823    23246512.912
  23246520.743          42.250          41.680
 21 04 28 12 45 09.0000000  0 16G03G04G07G08G09G16G26G27G31R02R03R04
                                R12R13R14R21
  24626602.448    24626605.869   129413640.8964  100841784.2244   24626602.271
  24626605.740          38.500          21.680
  20533933.561    20533934.835   107906544.6194   84083017.7184   20533933.266
  20533934.589          49.620          45.310
  24802466.699    24802467.321   130337846.1834  101561946.5134   24802466.244
  24802466.789          37.930          21.500
  24739836.881    24739839.783   130008710.1454  101305495.4304   24739836.577
  24739838.709          35.180          13.560
  21925941.042    21925943.287   115221602.2084   89783073.8124   21925940.461
  21925943.125          47.370          39.930
  19999822.469                   105099785.4334   81895937.7884   19999821.562
  19999821.440          48.870          46.500
  20912010.836    20912014.064   109893371.2814   85631210.4484   20912010.336
  20912013.840          49.810          44.810
  22451553.534    22451556.185   117983735.5274   91935389.8654   22451552.882
  22451556.217          44.750          35.620
  23631146.911    23631147.631   124182511.2964   96765591.9144   23631146.549
  23631147.541          42.310          40.680
  22471996.376    22472001.905   119914859.720    93267117.652    22471996.452
  22472001.722          46.750          41.750
  20096842.668    20096847.957   107579978.843    83673322.760    20096842.372
  20096847.966          53.060          50.370
  21369844.548    21369850.638   114434583.147    89004685.904    21369845.102
  21369850.549          49.120          46.180
  21249830.146    21249835.785   113512795.541    88287741.109    21249829.945
  21249835.516          49.870          47.310
  19544541.566    19544545.568   104366792.180    81174183.763    19544541.057
  19544545.528          43.430          46.180
  22208703.402    22208707.758   118384903.027    92077158.994    22208702.995
  22208707.937          48.250          44.430
  23246879.017    23246887.202   124398750.918    96754621.663    23246879.576
  23246887.698          42.060          41.810
 21 04 28 12 45 10.0000000  0 16G03G04G07G08G09G16G26G27G31R02R03R04
                                R12R13R14R21
  24627221.102    24627224.585   129416891.1704  100844316.9054   24627220.924
  24627224.352          38.680          22.000
  20533930.761    20533932.031   107906529.7944   84083006.1664   20533930.466
  20533931.763          49.750          45.310
  24801908.941    24801909.302   130334913.8844  101559661.6014   24801908.484
  24801908.730          37.810          21.620
  24739085.800    24739088.903   130004763.4054  101302420.0604   24739085.493
  24739087.709          35.120          13.930
  21925527.399    21925529.572   115219428.2364   89781379.8084   21925526.823
  21925529.425          47.370          39.930
  19999875.770                   105100065.6734   81896156.1564   19999874.867
  19999874.773          48.810          46.500
  20912389.636    20912392.841   109895361.7144   85632761.4344   20912389.131
  20912392.605          49.810          44.810
  22450908.949    22450911.489   117980347.9614   91932750.2054   22450908.298
  22450911.578          44.870          35.620
  23631703.762    23631704.071   124185436.2684   96767871.1144   23631703.400
  23631704.138          42.500          40.680
  22472827.830    22472833.314   119919296.448    93270568.438    22472827.933
  22472833.054          46.750          41.810
  20097153.848    20097158.990   107581644.471    83674618.249    20097153.530
  20097159.092          52.930          50.430
  21369401.785    21369407.961   114432212.379    89002841.972    21369402.407
  21369407.734          49.120          46.060
  21250337.210    21250342.737   113515503.083    88289846.975    21250336.862
  21250342.482          49.810          47.120
  19544510.856    19544515.232   104366629.837    81174057.495    19544510.569
  19544515.094          43.620          46.180
  22208163.847    22208167.997   118382025.143    92074920.644    22208163.051
  22208167.939          48.370          44.560
  23247245.744    23247254.188   124400714.784    96756149.091    23247246.361
  23247254.621          41.750          41.500
 21 04 28 12 45 11.0000000  0 16G03G04G07G08G09G16G26G27G31R02R03R04
                                R12R13R14R21
  24627839.818    24627843.203   129420141.4844  100846849.6214   24627839.640
  24627842.894          38.750          21.870
  20533928.141    20533929.317   107906515.6214   84082995.1224   20533927.851
  20533929.058          49.810          45.180
  24801350.793    24801351.146   130331981.5774  101557376.6934   24801350.336
  24801350.730          37.870          21.500
  24738334.733    24738337.935   130000816.6574  101299344.6764   24738334.420
  24738336.701          35.310          13.430
  21925113.908    21925115.916   115217254.7554   89779686.1854   21925113.336
  21925115.818          47.430          39.870
  19999929.144                   105100346.5234   81896374.9994   19999928.241
  19999928.217          48.870          46.430
  20912768.476    20912771.727   109897352.5164   85634312.7094   20912767.976
  20912771.445          49.870          44.680
  22450264.374    22450266.909   117976960.7414   91930110.8144   22450263.726
  22450266.990          44.930          35.620
  23632260.542    23632260.608   124188361.3464   96770150.3934   23632260.185
  23632260.752          42.500          40.680
  22473659.265    22473664.687   119923733.371    93274019.360    22473659.444
  22473664.508          46.750          41.810
  20097465.117    20097470.255   107583310.951    83675914.400    20097464.845
  20097470.393          52.870          50.430
  21368959.113    21368965.262   114429842.362    89000998.623    21368959.801
  21368965.069          49.180          46.180
  21250844.216    21250849.520   113518210.780    88291952.960    21250843.769
  21250849.345          49.680          47.250
  19544480.668    19544484.879   104366467.908    81173931.547    19544480.211
  19544484.781          43.620          46.250
  22207624.274    22207628.170   118379147.466    92072682.456    22207623.201
  22207627.977          48.310          44.560
  23247613.096    23247621.362   124402679.402    96757677.127    23247613.378
  23247621.808          41.620          41.430
 21 04 28 12 45 12.0000000  0 16G03G04G07G08G09G16G26G27G31R02R03R04
                                R12R13R14R21
  24628458.373    24628461.623   129423391.8884  100849382.4064   24628458.195
  24628461.329          38.680          21.680
  20533925.704    20533926.696   107906502.0844   84082984.5744   20533925.409
  20533926.477          49.810          45.180
  24800792.868    24800793.096   130329049.2864  101555091.7914   24800792.417
  24800792.810          38.000          21.680
  24737583.550    24737587.163   129996869.8644  101296269.2674   24737583.251
  24737585.647          35.430          13.250
  21924700.453    21924702.353   115215081.7874   89777992.9654   21924699.877
  21924702.317          47.430          39.870
  19999982.646                   105100627.9834   81896594.3184   19999981.743
  19999981.779          48.870          46.430
  20913147.357    20913150.553   109899343.7134   85635864.2914   20913146.857
  20913150.357          49.810          44.680
  22449619.901    22449622.361   117973573.8714   91927471.6944   22449619.253
  22449622.481          45.000          35.500
  23632817.393    23632817.008   124191286.5584   96772429.7794   23632817.040
  23632817.397          42.500          40.620
  22474490.857    22474496.087   119928170.494    93277470.461    22474490.996
  22474495.957          46.750          42.060
  20097776.401    20097781.676   107584978.320    83677211.242    20097776.342
  20097781.855          52.870          50.370
  21368516.713    21368522.723   114427473.067    88999155.841    21368517.388
  21368522.549          49.310          46.250
  21251351.137    21251356.382   113520918.626    88294059.061    21251350.659
  21251356.257          49.500          47.250
  19544450.811    19544454.713   104366306.404    81173805.939    19544449.885
  19544454.530          43.680          46.310
  22207084.536    22207088.400   118376270.000    92070444.430    22207083.338
  22207088.127          48.180          44.500
  23247980.427    23247988.763   124404644.817    96759205.785    23247980.740
  23247989.068          41.430          41.560
 21 04 28 12 45 13.0000000  0 16G03G04G07G08G09G16G26G27G31R02R03R04
                                R12R13R14R21
  24629077.161    24629080.420   129426642.3744  100851915.2444   24629076.992
  24629079.772          38.560          21.430
  20533923.325    20533924.121   107906489.2034   84082974.5374   20533923.035
  20533924.022          49.870          45.180
  24800234.635    24800235.270   130326116.9584  101552806.8604   24800234.179
  24800234.912          37.930          21.750
  24736832.429    24736836.100   129992923.0754  101293193.8504   24736832.134
  24736834.562          34.930          12.930
  21924287.070    21924288.880   115212909.3034   89776300.1184   21924286.497
  21924288.916          47.430          39.870
  20000036.261                   105100910.0484   81896814.1104   20000035.358
  20000035.461          48.810          46.430
  20913526.353    20913529.452   109901335.2934   85637416.1734   20913525.849
  20913529.345          49.750          44.680
  22448975.670    22448978.098   117970187.3544   91924832.8524   22448975.022
  22448978.058          45.060          35.500
  23633374.097    23633373.886   124194211.8884   96774709.2574   23633373.744
  23633374.065          42.560          40.620
  22475322.338    22475327.607   119932607.811    93280921.701    22475322.606
  22475327.540          46.810          42.000
  20098087.992    20098093.268   107586646.578    83678508.771    20098087.974
  20098093.496          52.870          50.430
  21368074.474    21368080.439   114425104.508    88997313.628    21368075.068
  21368080.171          49.310          46.180
  21251857.911    21251863.348   113523626.651    88296165.307    21251857.602
  21251863.268          49.310          47.120
  19544420.730    19544424.513   104366145.321    81173680.652    19544419.764
  19544424.454          43.680          46.310
  22206544.820    22206548.505   118373392.769    92068206.589    22206543.595
  22206548.362          47.930          44.370
  23248348.035    23248355.977   124406611.057    96760735.069    23248348.298
  23248356.510          41.560          41.370
 21 04 28 12 45 14.0000000  0 16G03G04G07G08G09G16G26G27G31R02R03R04
                                R12R13R14R21
  24629695.667    24629698.837   129429892.8794  100854448.1044   24629695.488
  24629698.358          38.680          21.560
  20533921.040    20533921.728   107906476.9624   84082964.9994   20533920.750
  20533921.688          49.930          45.180
  24799677.002    24799677.086   130323184.6474  101550521.9414   24799676.546
  24799676.934          38.180          21.620
  24736081.393    24736085.002   129988976.2704  101290118.4324   24736081.094
  24736083.508          35.310          13.250
  21923873.713    21923875.600   115210737.3344   89774607.6754   21923873.141
  21923875.613          47.430          39.870
  20000090.068                   105101192.7324   81897034.3824   20000089.165
  20000089.259          48.870          46.430
  20913905.408    20913908.427   109903327.2654   85638968.3594   20913904.909
  20913908.400          49.810          44.680
  22448331.448    22448333.813   117966801.1734   91922194.2684   22448330.805
  22448333.697          45.120          35.560
  23633930.992    23633930.621   124197137.3484   96776988.8354   23633930.640
  23633930.751          42.560          40.620
  22476154.015    22476159.235   119937045.362    93284373.132    22476154.265
  22476159.217          46.810          42.120
  20098399.861    20098404.967   107588315.683    83679806.966    20098399.785
  20098405.262          52.930          50.370
  21367632.324    21367638.026   114422736.713    88995472.010    21367632.821
  21367637.964          49.310          46.250
  21252364.787    21252370.019   113526334.884    88298271.704    21252364.541
  21252370.273          49.180          47.250
  19544390.689    19544394.257   104365984.669    81173555.692    19544389.675
  19544394.347          43.620          46.180
  22206004.912    22206008.691   118370515.773    92065968.923    22206003.883
  22206008.561          47.680          44.370
  23248715.467    23248723.567   124408578.059    96762264.961    23248715.870
  23248724.144          41.620          41.620
 21 04 28 12 45 15.0000000  0 16G03G04G07G08G09G16G26G27G31R02R03R04
                                R12R13R14R21
  24630314.222    24630317.571   129433143.5044  100856981.0594   24630314.039
  24630316.989          38.750          21.430
  20533918.818    20533919.484   107906465.3694   84082955.9664   20533918.523
  20533919.484          49.870          45.180
  24799119.118    24799119.077   130320252.3054  101548237.0004   24799118.666
  24799118.885          38.250          21.500
  24735330.156    24735333.992   129985029.4804  101287043.0094   24735329.843
  24735332.472          35.250          13.680
  21923460.392    21923462.506   115208565.8604   89772915.6164   21923459.820
  21923462.386          47.500          39.870
  20000144.037                   105101476.0104   81897255.1184   20000143.133
  20000143.168          48.930          46.430
  20914284.571    20914287.522   109905319.6124   85640520.8364   20914284.066
  20914287.531          49.810          44.680
  22447687.159    22447689.667   117963415.3554   91919555.9684   22447686.516
  22447689.394          45.180          35.560
  23634487.678    23634487.361   124200062.9274   96779268.5054   23634487.321
  23634487.459          42.620          40.750
  22476985.777    22476990.988   119941483.135    93287824.737    22476985.888
  22476990.881          46.870          42.180
  20098711.886    20098716.867   107589985.631    83681105.816    20098711.797
  20098717.194          53.060          50.310
  21367190.273    21367196.069   114420369.688    88993630.994    21367190.666
  21367195.971          49.310          46.180
  21252871.422    21252876.819   113529043.297    88300378.248    21252871.511
  21252877.298          48.930          47.120
  19544360.743    19544364.387   104365824.430    81173431.066    19544359.683
  19544364.320          43.750          46.250
  22205464.821    22205468.975   118367638.980    92063731.418    22205464.217
  22205468.921          47.370          44.370
  23249083.549    23249091.153   124410545.800    96763795.414    23249083.697
  23249091.819          41.750          41.560
 21 04 28 12 45 16.0000000  0 16G03G04G07G08G09G16G26G27G31R02R03R04
                                R12R13R14R21
  24630932.647    24630935.875   129436394.1704  100859514.0454   24630932.460
  24630935.616          38.620          21.370
  20533916.747    20533917.342   107906454.4304   84082947.4424   20533916.452
  20533917.395          49.930          45.120
  24798561.113    24798560.866   130317319.9894  101545952.0764   24798560.661
  24798560.866          38.250          21.310
  24734578.919    24734583.149   129981082.6784  101283967.5694   24734578.598
  24734581.418          35.370          13.250
  21923047.299    21923049.431   115206394.8724   89771223.9384   21923046.732
  21923049.252          47.430          39.810
  20000198.134                   105101759.9044   81897476.3344   20000197.231
  20000197.195          48.930          46.370
  20914663.688    20914666.631   109907312.3404   85642073.6114   20914663.189
  20914666.738          49.870          44.620
  22447042.968    22447045.601   117960029.8814   91916917.9384   22447042.329
  22447045.158          45.120          35.620
  23635044.422    23635044.194   124202988.6254   96781548.2674   23635044.069
  23635044.185          42.750          40.750
  22477817.593    22477822.433   119945921.152    93291276.515    22477817.606
  22477822.629          46.870          42.310
  20099024.077    20099028.870   107591656.431    83682405.328    20099023.934
  20099029.245          53.250          50.370
  21366748.369    21366754.013   114418003.431    88991790.569    21366748.710
  21366754.138          49.180          46.180
  21253378.075    21253383.803   113531751.866    88302484.912    21253378.549
  21253384.295          48.810          47.120
  19544330.524    19544334.217   104365664.617    81173306.763    19544329.706
  19544334.436          43.620          46.250
  22204924.653    22204929.353   118364762.404    92061494.085    22204924.573
  22204929.228          47.250          44.310
  23249451.676    23249459.230   124412514.301    96765326.473    23249451.743
  23249459.735          41.560          41.250
 21 04 28 12 45 17.0000000  0 16G03G04G07G08G09G16G26G27G31R02R03R04
                                R12R13R14R21
  24631551.073    24631554.515   129439644.8904  100862047.0644   24631550.886
  24631554.229          38.560          21.430
  20533914.780    20533915.343   107906444.1324   84082939.4184   20533914.485
  20533915.432          49.930          45.180
  24798003.228    24798002.875   130314387.6404  101543667.1264   24798002.778
  24798002.924          38.310          21.310
  24733827.485    24733832.305   129977135.8774  101280892.1554   24733827.159
  24733830.365          35.180          13.750
  21922634.286    21922636.410   115204224.3994   89769532.6594   21922633.714
  21922636.218          47.620          39.810
  20000252.353                   105102044.4084   81897698.0264   20000251.450
  20000251.333          49.000          46.370
  20915042.958    20915045.909   109909305.4594   85643626.6894   20915042.458
  20915046.016          49.930          44.620
  22446398.706    22446401.536   117956644.7524   91914280.1734   22446398.062
  22446400.999          45.180          35.620
  23635601.309    23635601.139   124205914.4464   96783828.1254   23635600.952
  23635600.942          42.680          40.680
  22478649.292    22478654.262   119950359.392    93294728.479    22478649.368
  22478654.432          46.930          42.370
  20099336.384    20099341.097   107593328.095    83683705.512    20099336.241
  20099341.530          53.180          50.310
  21366306.533    21366312.194   114415637.916    88989950.719    21366306.895
  21366312.413          49.180          46.310
  21253884.942    21253890.863   113534460.608    88304591.710    21253885.591
  21253891.404          48.810          47.060
  19544300.716    19544304.270   104365505.226    81173182.791    19544299.862
  19544304.619          43.680          46.250
  22204384.561    22204389.673   118361886.071    92059256.934    22204385.031
  22204389.677          47.250          44.310
  23249819.699    23249827.455   124414483.615    96766858.148    23249819.650
  23249827.718          41.620          41.500
 21 04 28 12 45 18.0000000  0 16G03G04G07G08G09G16G26G27G31R02R03R04
                                R12R13R14R21
  24632169.771    24632173.079   129442895.7014  100864580.1644   24632169.593
  24632172.846          38.750          21.500
  20533912.929    20533913.500   107906434.4854   84082931.8994   20533912.634
  20533913.595          49.930          45.180
  24797444.978    24797444.562   130311455.2844  101541382.1744   24797444.527
  24797444.937          38.250          21.430
  24733076.190    24733081.390   129973189.0524  101277816.6994   24733075.864
  24733079.302          35.250          13.180
  21922221.430    21922223.375   115202054.4164   89767841.7644   21922220.863
  21922223.277          47.620          39.810
  20000306.643                   105102329.5194   81897920.1904   20000305.740
  20000305.591          49.000          46.370
  20915422.398    20915425.178   109911298.9554   85645180.0624   20915421.898
  20915425.367          49.810          44.680
  22445754.470    22445757.519   117953259.9864   91911642.6924   22445753.831
  22445756.906          45.120          35.620
  23636158.044    23636157.825   124208840.3954   96786108.0814   23636157.687
  23636157.731          42.870          40.750
  22479481.000    22479486.288   119954797.831    93298180.594    22479481.112
  22479486.212          46.930          42.310
  20099648.915    20099653.658   107595000.648    83685006.381    20099648.651
  20099654.007          53.180          50.310
  21365864.857    21365870.644   114413273.125    88988111.441    21365865.256
  21365870.832          49.250          46.250
  21254391.957    21254397.949   113537169.540    88306698.658    21254392.677
  21254398.530          49.000          47.180
  19544271.114    19544274.771   104365346.264    81173059.158    19544270.076
  19544274.865          43.620          46.310
  22203844.734    22203850.185   118359009.976    92057019.971    22203845.494
  22203850.113          47.250          44.250
  23250187.937    23250195.666   124416453.740    96768390.475    23250187.830
  23250195.840          41.370          41.430
 21 04 28 12 45 19.0000000  0 16G03G04G07G08G09G16G26G27G31R02R03R04
                                R12R13R14R21
  24632788.527    24632791.353   129446146.5654  100867113.3044   24632788.349
  24632791.397          38.750          21.370
  20533911.238    20533911.823   107906425.4854   84082924.8864   20533910.943
  20533911.882          50.000          45.180
  24796886.955    24796886.731   130308522.9344  101539097.2244   24796886.504
  24796886.924          38.180          21.060
  24732324.993    24732330.144   129969242.2074  101274741.2324   24732324.672
  24732328.222          35.310          13.250
  21921808.650    21921810.622   115199884.9434   89766151.2664   21921808.078
  21921810.439          47.810          39.810
  20000361.031                   105102615.2374   81898142.8284   20000360.128
  20000359.958          49.060          46.430
  20915801.895    20915804.623   109913292.8244   85646733.7254   20915801.395
  20915804.788          49.870          44.620
  22445110.319    22445113.520   117949875.5654   91909005.4814   22445109.676
  22445112.881          45.120          35.620
  23636714.775    23636714.796   124211766.4614   96788388.1314   23636714.421
  23636714.542          42.870          40.750
  22480312.624    22480318.287   119959236.468    93301632.874    22480312.870
  22480318.059          46.930          42.060
  20099961.544    20099966.323   107596674.048    83686307.916    20099961.311
  20099966.636          53.180          50.370
  21365423.472    21365429.273   114410909.083    88986272.740    21365423.817
  21365429.451          49.310          46.310
  21254899.039    21254905.075   113539878.629    88308805.730    21254899.835
  21254905.603          49.120          47.120
  19544241.275    19544244.937   104365187.724    81172935.847    19544240.537
  19544245.223          43.430          46.250
  22203304.870    22203310.590   118356134.105    92054783.176    22203305.966
  22203310.568          47.310          44.310
  23250556.368    23250564.208   124418424.628    96769923.383    23250556.028
  23250564.199          41.180          41.180
 21 04 28 12 45 20.0000000  0 16G03G04G07G08G09G16G26G27G31R02R03R04
                                R12R13R14R21
  24633407.265    24633409.908   129449397.4934  100869646.4954   24633407.091
  24633410.015          38.560          21.370
  20533909.713    20533910.295   107906417.1284   84082918.3744   20533909.418
  20533910.286          50.060          45.180
  24796329.018    24796328.387   130305590.5634  101536812.2514   24796328.561
  24796328.856          37.870          21.120
  24731573.622    24731578.862   129965295.3604  101271665.7794   24731573.292
  24731577.185          35.120          13.370
  21921396.067    21921397.886   115197715.9694   89764461.1564   21921395.495
  21921397.685          47.810          39.810
  20000415.544                   105102901.5664   81898365.9424   20000414.641
  20000414.444          49.060          46.370
  20916181.335    20916184.183   109915287.0814   85648287.6904   20916180.830
  20916184.281          49.870          44.680
  22444466.245    22444469.495   117946491.4934   91906368.5434   22444465.606
  22444468.941          45.120          35.620
  23637271.648    23637271.800   124214692.6474   96790668.2744   23637271.291
  23637271.370          42.930          40.750
  22481144.448    22481150.425   119963675.295    93305085.281    22481144.623
  22481149.861          46.870          42.250
  20100274.276    20100279.171   107598348.297    83687610.106    20100274.088
  20100279.382          53.250          50.370
  21364982.222    21364987.937   114408545.807    88984434.640    21364982.508
  21364988.250          49.500          46.430
  21255406.313    21255412.372   113542587.899    88310912.939    21255407.034
  21255412.846          49.310          47.250
  19544211.355    19544215.334   104365029.601    81172812.870    19544210.984
  19544215.638          43.310          46.370
  22202765.338    22202771.173   118353258.445    92052546.554    22202766.518
  22202771.030          47.370          44.310
  23250924.691    23250932.938   124420396.244    96771456.848    23250924.297
  23250932.630          40.930          40.870
 21 04 28 12 45 21.0000000  0 16G03G04G07G08G09G16G26G27G31R02R03R04
                                R12R13R14R21
  24634025.771    24634028.387   129452648.4924  100872179.7314   24634025.597
  24634028.651          38.620          21.370
  20533908.412    20533908.854   107906409.4074   84082912.3584   20533908.117
  20533908.810          50.120          45.120
  24795770.641    24795769.899   130302658.1794  101534527.2784   24795770.190
  24795770.816          37.870          20.870
  24730822.376    24730827.724   129961348.5334  101268590.3214   24730822.055
  24730826.114          35.120          13.120
  21920983.466    21920985.223   115195547.4944   89762771.4344   21920982.899
  21920985.035          47.810          39.750
  20000470.219                   105103188.5024   81898589.5284   20000469.316
  20000469.047          49.180          46.370
  20916560.899    20916563.819   109917281.7404   85649841.9704   20916560.395
  20916563.855          49.810          44.620
  22443822.358    22443825.581   117943107.7744   91903731.8804   22443821.719
  22443825.063          45.180          35.560
  23637828.499    23637828.695   124217618.9564   96792948.5134   23637828.142
  23637828.235          42.930          40.810
  22481976.291    22481982.088   119968114.307    93308537.843    22481976.421
  22481981.806          46.810          42.310
  20100587.240    20100592.212   107600023.384    83688912.951    20100586.990
  20100592.261          53.310          50.310
  21364541.203    21364546.968   114406183.311    88982597.145    21364541.373
  21364547.200          49.620          46.370
  21255913.664    21255919.597   113545297.339    88313020.284    21255914.290
  21255920.148          49.430          47.310
  19544181.597    19544185.696   104364871.902    81172690.211    19544181.498
  19544186.050          43.430          46.370
  22202225.859    22202231.672   118350382.982    92050310.083    22202227.138
  22202231.672          47.430          44.370
  23251292.499    23251301.739   124422368.669    96772990.971    23251292.853
  23251301.145          41.000          40.750
 21 04 28 12 45 22.0000000  0 16G03G04G07G08G09G16G26G27G31R02R03R04
                                R12R13R14R21
  24634644.344    24634647.228   129455899.5534  100874713.0284   24634644.166
  24634647.353          38.370          21.310
  20533907.142    20533907.522   107906402.3524   84082906.8614   20533906.848
  20533907.464          50.120          45.120
  24795212.511    24795212.042   130299725.7894  101532242.3104   24795212.055
  24795212.837          37.620          20.870
  24730071.268    24730076.491   129957401.6984  101265514.8734   24730070.948
  24730075.047          35.120          13.250
  21920570.932    21920572.720   115193379.5194   89761082.1004   21920570.365
  21920572.470          47.930          39.750
  20000524.983                   105103476.0444   81898813.5874   20000524.080
  20000523.766          49.250          46.370
  20916940.536    20916943.545   109919276.7574   85651396.5284   20916940.031
  20916943.491          49.930          44.620
  22443178.708    22443181.748   117939724.4034   91901095.4904   22443178.069
  22443181.247          45.250          35.560
  23638385.328    23638385.480   124220545.3974   96795228.8564   23638384.966
  23638385.117          43.000          40.750
  22482808.219    22482813.712   119972553.513    93311990.554    22482808.178
  22482813.667          46.870          42.060
  20100900.468    20100905.315   107601699.336    83690216.471    20100900.106
  20100905.350          53.310          50.370
  21364100.288    21364106.075   114403821.567    88980760.226    21364100.413
  21364106.316          49.680          46.500
  21256420.951    21256427.019   113548006.937    88315127.749    21256421.564
  21256427.408          49.560          47.120
  19544152.321    19544156.210   104364714.640    81172567.898    19544152.084
  19544156.608          43.500          46.250
  22201686.675    22201692.238   118347507.742    92048073.779    22201687.739
  22201692.314          47.680          44.060
  23251660.858    23251670.805   124424341.903    96774525.703    23251661.587
  23251669.768          40.930          41.060
 21 04 28 12 45 23.0000000  0 16G03G04G07G08G09G16G26G27G31R02R03R04
                                R12R13R14R21
  24635262.586    24635265.819   129459150.6854  100877246.3644   24635262.403
  24635265.998          38.430          21.120
  20533905.984    20533906.306   107906395.9384   84082901.8634   20533905.689
  20533906.243          50.060          45.060
  24794654.439    24794653.746   130296793.3774  101529957.3204   24794653.983
  24794654.864          37.310          21.000
  24729320.394    24729325.608   129953454.8404  101262439.4024   24729320.077
  24729323.975          35.120          13.620
  21920158.474    21920160.200   115191212.0454   89759393.1584   21920157.902
  21920159.990          47.810          39.750
  20000579.877                   105103764.2004   81899038.1244   20000578.974
  20000578.597          49.180          46.370
  20917320.230    20917323.333   109921272.1604   85652951.3884   20917319.725
  20917323.204          50.000          44.620
  22442535.067    22442538.018   117936341.3854   91898459.3744   22442534.428
  22442537.486          45.310          35.620
  23638942.206    23638942.559   124223471.9504   96797509.2854   23638941.849
  23638942.022          42.870          40.750
  22483640.191    22483645.872   119976992.945    93315443.434    22483640.003
  22483645.639          46.620          42.000
  20101213.705    20101218.614   107603376.169    83691520.673    20101213.379
  20101218.588          53.250          50.370
  21363659.484    21363665.280   114401460.552    88978923.890    21363659.618
  21363665.512          49.750          46.620
  21256928.386    21256934.476   113550716.710    88317235.346    21256928.878
  21256934.683          49.750          47.500
  19544122.835    19544126.792   104364557.790    81172445.910    19544122.768
  19544127.243          43.680          46.370
  22201147.603    22201152.880   118344632.728    92045837.662    22201148.413
  22201152.893          47.930          44.120
  23252029.736    23252039.468   124426315.903    96776061.034    23252030.492
  23252038.489          41.180          40.810
 21 04 28 12 45 24.0000000  0 16G03G04G07G08G09G16G26G27G31R02R03R04
                                R12R13R14R21
  24635881.025    24635884.441   129462401.8694  100879779.7614   24635880.847
  24635884.642          38.180          21.120
  20533904.831    20533905.192   107906390.1674   84082897.3664   20533904.536
  20533905.139          50.060          45.060
  24794096.381    24794095.576   130293860.9584  101527672.3224   24794095.925
  24794096.877          37.430          21.000
  24728569.666    24728574.693   129949507.9654  101259363.9254   24728569.346
  24728572.894          35.120          13.680
  21919746.105    21919747.854   115189045.0614   89757704.6004   21919745.538
  21919747.616          47.810          39.750
  20000634.824                   105104052.9584   81899263.1314   20000633.921
  20000633.554          49.180          46.370
  20917699.916    20917703.099   109923267.9594   85654506.5564   20917699.411
  20917702.992          50.000          44.620
  22441891.404    22441894.287   117932958.7154   91895823.5274   22441890.765
  22441893.792          45.310          35.620
  23639499.245    23639499.468   124226398.6334   96799789.8164   23639498.888
  23639498.945          42.930          40.750
  22484472.270    22484477.938   119981432.601    93318896.515    22484471.845
  22484477.607          46.560          42.060
  20101527.068    20101532.138   107605053.862    83692825.549    20101526.826
  20101531.986          53.180          50.310
  21363218.703    21363224.610   114399100.302    88977088.138    21363219.030
  21363224.830          49.750          46.560
  21257435.907    21257441.885   113553426.679    88319343.102    21257436.197
  21257442.042          49.680          47.500
  19544093.586    19544097.619   104364401.363    81172324.237    19544093.412
  19544097.950          43.870          46.430
  22200608.665    22200613.575   118341757.946    92043601.723    22200609.117
  22200613.584          48.120          44.250
  23252399.016    23252408.498   124428290.667    96777596.953    23252399.526
  23252407.299          41.250          40.560
 21 04 28 12 45 25.0000000  0 16G03G04G07G08G09G16G26G27G31R02R03R04
                                R12R13R14R21
  24636499.830    24636502.929   129465653.1284  100882313.2024   24636499.648
  24636503.296          38.120          21.000
  20533903.708    20533904.182   107906385.0524   84082893.3794   20533903.413
  20533904.164          49.930          45.060
  24793538.304    24793537.987   130290928.5144  101525387.3104   24793537.848
  24793538.818          37.370          21.000
  24727818.470    24727823.187   129945561.1014  101256288.4384   24727818.140
  24727821.810          35.180          13.430
  21919333.866    21919335.436   115186878.5884   89756016.4394   21919333.300
  21919335.337          47.750          39.750
  20000689.807                   105104342.3304   81899488.6154   20000688.904
  20000688.621          49.120          46.370
  20918079.807    20918082.959   109925264.1194   85656062.0044   20918079.302
  20918082.843          50.120          44.620
  22441247.902    22441250.683   117929576.3984   91893187.9564   22441247.262
  22441250.146          45.430          35.680
  23640056.203    23640056.440   124229325.4304   96802070.4364   23640055.846
  23640055.894          43.000          40.810
  22485304.243    22485309.825   119985872.502    93322349.759    22485303.719
  22485309.619          46.430          42.120
  20101840.488    20101845.710   107606732.395    83694131.071    20101840.412
  20101845.585          53.120          50.370
  21362778.190    21362784.053   114396740.816    88975252.980    21362778.539
  21362784.227          49.810          46.370
  21257943.378    21257949.285   113556136.832    88321451.000    21257943.498
  21257949.410          49.620          47.430
  19544064.543    19544068.303   104364245.367    81172202.904    19544064.162
  19544068.710          43.930          46.370
  22200069.831    22200074.141   118338883.391    92041365.960    22200069.947
  22200074.342          48.180          44.120
  23252768.475    23252777.791   124430266.218    96779133.474    23252768.828
  23252776.346          41.310          40.500
 21 04 28 12 45 26.0000000  0 16G03G04G07G08G09G16G26G27G31R02R03R04
                                R12R13R14R21
  24637118.408    24637121.207   129468904.4444  100884846.7004   24637118.230
  24637121.967          38.000          21.000
  20533902.680    20533903.314   107906380.5804   84082889.8944   20533902.385
  20533903.310          49.750          45.120
  24792980.608    24792980.353   130287996.1044  101523102.3244   24792980.157
  24792980.764          37.370          20.870
  24727067.407    24727072.383   129941614.1854  101253212.9114   24727067.081
  24727070.702          35.000          14.120
  21918921.655    21918923.349   115184712.6074   89754328.6634   21918921.082
  21918923.152          47.870          39.680
  20000744.852                   105104632.3124   81899714.5754   20000743.946
  20000743.810          48.930          46.370
  20918459.743    20918462.841   109927260.6764   85657617.7644   20918459.237
  20918462.769          49.930          44.620
  22440604.484    22440607.113   117926194.4264   91890552.6564   22440603.850
  22440606.567          45.500          35.620
  23640613.282    23640613.537   124232252.3604   96804351.1594   23640612.920
  23640612.875          43.000          40.810
  22486136.188    22486141.766   119990312.646    93325803.206    22486135.665
  22486141.627          46.250          42.000
  20102154.101    20102159.498   107608411.765    83695437.250    20102154.145
  20102159.341          53.120          50.430
  21362337.794    21362343.674   114394382.087    88973418.413    21362338.209
  21362343.817          49.870          46.370
  21258450.786    21258456.689   113558847.151    88323559.024    21258450.871
  21258456.778          49.430          47.560
  19544035.553    19544039.264   104364089.795    81172081.900    19544034.994
