     2.11           OBSERVATION DATA    M (MIXED)           RINEX VERSION / TYPE
RTCM2RINEX 1.2.19   NRCan               20210428 22:16:09UTCPGM / RUN BY / DATE
gfzrnx-1.11-7352    FILE CONVERSION     20210428 221610 UTC COMMENT
ALGO CACS-GSD 883160 Algonquin Park ON Canada               MARKER NAME
40104M002                                                   MARKER NUMBER
ACSOPS              NRCan                                   OBSERVER / AGENCY
3015995             SEPT POLARX5        5.3.2               REC # / TYPE / VERS
303                 AOAD/M_T        NONE                    ANT # / TYPE
   918129.4000 -4346071.2000  4561977.8000                  APPROX POSITION XYZ
        0.1000        0.0000        0.0000                  ANTENNA: DELTA H/E/N
     1     1                                                WAVELENGTH FACT L1/2
GPS -    L1 Phase aligned to CA and L2 aligned to P2        COMMENT
GLONASS- L1 Phase aligned to C1 and L2 aligned to P2        COMMENT
    18                  GPS                                 LEAP SECONDS
     8    C1    C2    L1    L2    P1    P2    S1    S2      # / TYPES OF OBSERV
    19                                                      # OF SATELLITES
   G02   900         900   900   900   900   900   900      PRN / # OF OBS
   G03   212   212   212   212   212   212   212   212      PRN / # OF OBS
   G04   900   900   900   900   900   900   900   900      PRN / # OF OBS
   G05    66    66    66    66    66    66    66    66      PRN / # OF OBS
   G06   900   900   900   900   900   900   900   900      PRN / # OF OBS
   G09   900   900   900   900   900   900   900   900      PRN / # OF OBS
   G12   900   900   900   900   900   900   900   900      PRN / # OF OBS
   G17   900   900   900   900   900   900   900   900      PRN / # OF OBS
   G19   900         900   900   900   900   900   900      PRN / # OF OBS
   G25   900   900   900   900   900   900   900   900      PRN / # OF OBS
   G28    49          49    49    49    49    49    49      PRN / # OF OBS
   R03   900   900   900   900   900   900   900   900      PRN / # OF OBS
   R04   900   900   900   900   900   900   900   900      PRN / # OF OBS
   R05   900   900   900   900   900   900   900   900      PRN / # OF OBS
   R09   900   900   900   900   900   900   900   900      PRN / # OF OBS
   R11   900   900   900   900   900   900   900   900      PRN / # OF OBS
   R19   900   900   900   900   900   900   900   900      PRN / # OF OBS
   R20   900   900   900   900   900   900   900   900      PRN / # OF OBS
   R21   655   655   655   654   655   654   655   654      PRN / # OF OBS
     1.000                                                  INTERVAL
  2021     4    28    22     0    0.0000000     GPS         TIME OF FIRST OBS
  2021     4    28    22    14   59.0000000     GPS         TIME OF LAST OBS
                                                            END OF HEADER
 21 04 28 22 00 00.0000000  0 17G02G03G04G06G09G12G17G19G25G28R03R04
                                R05R09R11R19R20
  21543338.226                   113211057.3984   88216417.4374   21543337.131
  21543335.749          50.500          44.310
  24883720.182    24883727.131   130764860.2674  101894713.5494   24883719.874
  24883726.312          29.430          17.500
  24518729.473    24518731.221   128846816.2484  100400133.2284   24518729.281
  24518732.799          38.000          20.560
  20357245.757    20357248.547   106978089.3404   83359576.6664   20357245.623
  20357248.042          52.750          50.060
  24357230.662    24357235.934   127998135.9804   99738833.3904   24357230.117
  24357235.290          38.060          35.180
  21453095.311    21453094.609   112736805.5814   87846882.9864   21453094.891
  21453093.974          50.250          42.500
  22453942.449    22453942.659   117996295.2924   91945178.1884   22453942.008
  22453942.548          46.620          36.810
  20786297.455                   109232764.4034   85116431.8494   20786296.177
  20786295.536          49.680          44.370
  23932279.939    23932284.205   125764996.4514   97998711.4174   23932279.188
  23932283.037          38.870          21.930
  24621294.973                   129385765.1254  100820075.3264   24621294.132
  24621297.369          32.060           5.000
  22448713.342    22448719.972   120169780.274    93465398.761    22448713.776
  22448720.576          45.370          43.810
  20749417.904    20749424.094   111112217.003    86420672.047    20749418.410
  20749424.313          51.810          48.560
  22458024.479    22458031.183   120051048.483    93373068.326    22458024.479
  22458031.366          47.560          43.870
  22893962.116    22893966.905   122252470.737    95085292.607    22893962.867
  22893966.981          46.430          41.930
  22448426.219    22448431.546   119957632.366    93300396.027    22448426.255
  22448431.975          44.930          42.870
  20791921.702    20791928.283   111222785.066    86506663.487    20791921.903
  20791927.935          39.500          45.000
  20100102.503    20100109.978   107484219.295    83598940.856    20100102.020
  20100109.160          41.060          50.250
 21 04 28 22 00 01.0000000  0 17G02G03G04G06G09G12G17G19G25G28R03R04
                                R05R09R11R19R20
  21543101.999                   113209816.0224   88215450.1324   21543100.904
  21543099.526          50.560          44.310
  24884387.617    24884394.122   130768365.6794  101897445.0354   24884387.322
  24884393.389          29.120          17.680
  24518548.551    24518549.731   128845863.1574  100399390.5614   24518548.359
  24518551.404          38.250          20.430
  20357363.736    20357366.611   106978709.5414   83360059.9394   20357363.598
  20357366.057          52.750          50.060
  24356797.335    24356802.499   127995857.9064   99737058.2724   24356796.794
  24356801.802          38.180          35.180
  21452875.231    21452874.645   112735649.0554   87845981.7974   21452874.807
  21452873.890          50.250          42.500
  22454395.215    22454395.277   117998674.0354   91947031.7544   22454394.772
  22454395.201          46.680          36.870
  20786639.480                   109234561.4934   85117832.1784   20786638.202
  20786637.503          49.750          44.430
  23931715.419    23931719.761   125762030.7864   97996400.5114   23931714.668
  23931718.745          38.930          21.870
  24621980.387                   129389368.5664  100822883.2184   24621979.574
  24621983.056          32.120           5.120
  22449165.392    22449171.986   120172200.259    93467280.964    22449165.776
  22449172.483          45.430          43.560
  20749176.437    20749182.501   111110923.343    86419665.860    20749176.898
  20749182.716          51.750          48.500
  22457241.725    22457248.202   120046863.389    93369813.244    22457241.685
  22457248.479          47.560          43.560
  22894746.144    22894750.669   122256657.287    95088548.809    22894746.801
  22894751.040          46.430          41.870
  22448040.685    22448046.418   119955573.045    93298794.338    22448040.877
  22448046.593          44.930          42.870
  20792304.321    20792310.737   111224830.675    86508254.509    20792304.227
  20792310.285          39.560          44.810
  20099853.577    20099861.293   107482889.134    83597906.272    20099853.232
  20099860.448          41.120          50.310
 21 04 28 22 00 02.0000000  0 17G02G03G04G06G09G12G17G19G25G28R03R04
                                R05R09R11R19R20
  21542865.794                   113208574.9414   88214483.0564   21542864.700
  21542863.353          50.560          44.370
  24885054.809    24885061.092   130771871.4134  101900176.7734   24885054.520
  24885060.515          29.310          17.370
  24518367.678    24518368.402   128844910.6124  100398648.3174   24518367.482
  24518370.088          38.430          20.370
  20357481.787    20357484.716   106979330.1374   83360543.5204   20357481.653
  20357484.152          52.680          50.060
  24356363.847    24356368.940   127993580.1654   99735283.4104   24356363.311
  24356368.358          38.250          35.250
  21452655.218    21452654.771   112734493.1944   87845081.1274   21452654.795
  21452653.939          50.180          42.560
  22454847.967    22454847.944   118001053.0434   91948885.5274   22454847.524
  22454847.903          46.560          36.870
  20786981.537                   109236359.0034   85119232.8364   20786980.259
  20786979.564          49.620          44.370
  23931151.091    23931155.433   125759065.5364   97994089.9254   23931150.340
  23931154.494          39.000          21.870
  24622666.218                   129392972.0064  100825691.0784   24622665.409
  24622668.766          32.180           5.870
  22449617.853    22449624.027   120174620.951    93469163.720    22449618.009
  22449624.639          45.620          43.560
  20748935.059    20748941.042   111109630.529    86418660.339    20748935.488
  20748941.283          51.620          48.430
  22456459.048    22456465.333   120042678.549    93366558.376    22456458.937
  22456465.677          47.620          43.810
  22895530.314    22895534.580   122260844.024    95091805.156    22895530.721
  22895535.170          46.310          41.750
  22447655.302    22447661.501   119953514.503    93297193.250    22447655.669
  22447661.381          45.000          42.750
  20792686.412    20792693.159   111226876.533    86509845.742    20792686.877
  20792692.743          39.430          44.870
  20099604.820    20099612.577   107481559.266    83596871.938    20099604.440
  20099611.777          41.180          50.250
 21 04 28 22 00 03.0000000  0 17G02G03G04G06G09G12G17G19G25G28R03R04
                                R05R09R11R19R20
  21542629.702                   113207334.1514   88213516.2074   21542628.607
  21542627.238          50.500          44.370
  24885721.913    24885727.824   130775377.2934  101902908.6304   24885721.623
  24885727.636          29.370          16.930
  24518187.043    24518187.252   128843958.6284  100397906.5164   24518186.847
  24518188.961          38.620          20.560
  20357599.905    20357602.892   106979951.1174   83361027.4014   20357599.771
  20357602.319          52.680          50.060
  24355930.529    24355935.568   127991302.7614   99733508.8144   24355929.988
  24355934.982          38.370          35.310
  21452435.237    21452435.017   112733338.0104   87844180.9844   21452434.813
  21452434.106          50.120          42.560
  22455300.794    22455300.713   118003432.3274   91950739.5144   22455300.352
  22455300.669          46.560          36.930
  20787323.567                   109238156.9414   85120633.8264   20787322.288
  20787321.693          49.500          44.430
  23930586.710    23930591.105   125756100.6614   97991779.6354   23930585.968
  23930590.331          39.120          21.810
  24623352.182                   129396575.4854  100828498.9564   24623351.369
  24623354.503          31.810           5.310
  22450070.609    22450076.256   120177042.343    93471047.030    22450070.331
  22450076.922          45.810          43.680
  20748693.757    20748699.945   111108338.564    86417655.479    20748694.190
  20748700.004          51.370          48.560
  22455676.183    22455682.656   120038493.955    93363303.702    22455676.237
  22455682.893          47.620          43.870
  22896314.628    22896318.795   122265030.928    95095061.643    22896314.552
  22896319.296          46.250          42.000
  22447270.166    22447276.351   119951456.742    93295592.765    22447270.644
  22447276.217          45.060          42.620
  20793068.972    20793075.729   111228922.656    86511437.167    20793069.201
  20793075.205          39.620          45.060
  20099356.131    20099363.968   107480229.727    83595837.856    20099355.930
  20099363.150          41.310          50.250
 21 04 28 22 00 04.0000000  0 17G02G03G04G06G09G12G17G19G25G28R03R04
                                R05R09R11R19R20
  21542393.623                   113206093.6474   88212549.5804   21542392.528
  21542391.181          50.500          44.430
  24886389.522    24886395.442   130778883.3884  101905640.6484   24886389.232
  24886394.829          29.180          17.000
  24518006.264    24518006.443   128843007.1704  100397165.1204   24518006.068
  24518007.887          38.560          20.500
  20357718.103    20357721.131   106980572.4934   83361511.5904   20357717.966
  20357720.554          52.620          50.120
  24355497.573    24355502.093   127989025.7314   99731734.5094   24355497.037
  24355501.700          38.560          35.370
  21452215.484    21452215.197   112732183.4964   87843281.3614   21452215.060
  21452214.414          50.000          42.620
  22455753.568    22455753.617   118005811.8804   91952593.7094   22455753.126
  22455753.488          46.500          36.930
  20787665.717                   109239955.3014   85122035.1464   20787664.439
  20787663.906          49.430          44.430
  23930022.556    23930026.675   125753136.1964   97989469.6654   23930021.810
  23930026.214          39.060          22.000
  24624037.991                   129400179.0704  100831306.9634   24624037.178
  24624040.276          31.930           5.560
  22450522.847    22450529.164   120179464.451    93472930.890    22450522.842
  22450529.441          45.750          43.430
  20748452.477    20748458.943   111107047.459    86416651.289    20748453.031
  20748458.836          51.180          48.620
  22454893.310    22454899.621   120034309.631    93360049.217    22454893.591
  22454900.095          47.750          43.870
  22897098.691    22897102.970   122269218.043    95098318.269    22897098.495
  22897103.395          46.180          41.810
  22446885.275    22446891.505   119949399.768    93293992.896    22446885.807
  22446891.264          45.180          42.560
  20793450.827    20793458.124   111230969.040    86513028.795    20793451.802
  20793457.726          39.810          44.930
  20099107.357    20099115.257   107478900.509    83594804.023    20099107.415
  20099114.613          41.370          50.310
 21 04 28 22 00 05.0000000  0 17G02G03G04G06G09G12G17G19G25G28R03R04
                                R05R09R11R19R20
  21542157.642                   113204853.4454   88211583.1904   21542156.547
  21542155.173          50.500          44.430
  24887056.858    24887062.201   130782389.7194  101908372.8534   24887056.572
  24887062.040          28.430          17.310
  24517825.494    24517825.869   128842056.2844  100396424.1604   24517825.293
  24517826.888          38.750          20.430
  20357836.414    20357839.414   106981194.2664   83361996.0884   20357836.280
  20357838.860          52.620          50.120
  24355064.590    24355068.637   127986749.0234   99729960.4524   24355064.058
  24355068.471          38.810          35.370
  21451995.842    21451995.547   112731029.6574   87842382.2664   21451995.418
  21451994.849          50.000          42.620
  22456206.405    22456206.601   118008191.7034   91954448.1164   22456205.963
  22456206.360          46.500          36.930
  20788007.962                   109241754.0744   85123436.7874   20788006.684
  20788006.204          49.430          44.430
  23929458.537    23929462.843   125750172.1494   97987160.0124   23929457.795
  23929462.195          39.120          22.060
  24624723.750                   129403782.6464  100834114.8984   24624722.937
  24624726.017          31.750           6.120
  22450975.616    22450981.831   120181887.290    93474815.319    22450975.455
  22450982.094          45.750          43.620
  20748211.318    20748218.070   111105757.217    86415647.768    20748211.997
  20748217.900          51.060          48.500
  22454110.726    22454116.653   120030125.590    93356794.965    22454110.999
  22454117.454          47.620          43.750
  22897882.602    22897887.387   122273405.323    95101575.059    22897882.477
  22897887.561          46.060          42.120
  22446500.703    22446506.745   119947343.571    93292393.631    22446501.163
  22446506.432          45.560          42.680
  20793833.512    20793840.734   111233015.683    86514620.633    20793834.309
  20793840.340          39.870          44.750
  20098858.582    20098866.755   107477571.624    83593770.439    20098858.833
  20098866.120          41.370          50.180
 21 04 28 22 00 06.0000000  0 17G02G03G04G06G09G12G17G19G25G28R03R04
                                R05R09R11R19R20
  21541921.656                   113203613.5314   88210617.0244   21541920.561
  21541919.219          50.430          44.430
  24887723.809    24887728.388   130785896.2154  101911105.1834   24887723.528
  24887729.287          29.250          17.310
  24517644.899    24517644.916   128841105.9384  100395683.6294   24517644.694
  24517645.994          38.870          20.620
  20357954.791    20357957.791   106981816.4264   83362480.8884   20357954.653
  20357957.250          52.620          50.120
  24354631.567    24354635.350   127984472.6734   99728186.6724   24354631.035
  24354635.310          38.930          35.370
  21451776.290    21451775.846   112729876.4904   87841483.6974   21451775.866
  21451775.413          49.930          42.620
  22456659.282    22456659.425   118010571.8044   91956302.7364   22456658.840
  22456659.277          46.500          36.930
  20788350.327                   109243553.2764   85124838.7604   20788349.049
  20788348.578          49.500          44.430
  23928894.577    23928898.895   125747208.4884   97984850.6684   23928893.834
  23928898.256          39.310          21.870
  24625409.876                   129407386.3214  100836922.9564   24625409.076
  24625411.789          32.000           5.430
  22451428.350    22451434.815   120184310.875    93476700.326    22451428.042
  22451434.958          45.750          43.560
  20747970.288    20747977.372   111104467.869    86414644.941    20747971.133
  20747977.121          51.120          48.560
  22453327.996    22453333.815   120025941.832    93353540.933    22453328.425
  22453334.768          47.560          43.930
  22898666.840    22898671.865   122277592.797    95104831.971    22898666.496
  22898671.722          45.930          42.120
  22446116.295    22446122.100   119945288.134    93290794.965    22446116.662
  22446121.640          45.750          42.500
  20794216.525    20794223.370   111235062.587    86516212.669    20794217.048
  20794222.959          39.930          45.000
  20098609.871    20098618.168   107476243.070    83592737.116    20098610.475
  20098617.708          41.370          50.180
 21 04 28 22 00 07.0000000  0 17G02G03G04G06G09G12G17G19G25G28R03R04
                                R05R09R11R19R20
  21541685.747                   113202373.9164   88209651.0924   21541684.656
  21541683.323          50.500          44.430
  24888390.546    24888395.921   130789402.9674  101913837.7134   24888390.265
  24888396.667          28.930          17.250
  24517464.459    24517464.589   128840156.1414  100394943.5264   24517464.249
  24517465.242          39.060          20.430
  20358073.240    20358076.244   106982438.9794   83362965.9934   20358073.106
  20358075.708          52.620          50.120
  24354198.969    24354202.112   127982196.6754   99726413.1694   24354198.433
  24354202.210          39.250          35.430
  21451556.876    21451556.339   112728724.0004   87840585.6534   21451556.452
  21451556.107          49.930          42.620
  22457112.186    22457112.288   118012952.1654   91958157.5594   22457111.744
  22457112.248          46.500          36.930
  20788692.827                   109245352.8934   85126241.0594   20788691.553
  20788691.038          49.560          44.430
  23928330.897    23928334.925   125744245.2494   97982541.6594   23928330.160
  23928334.353          39.430          21.930
  24626095.250                   129410990.0174  100839731.0824   24626094.477
  24626097.602          32.060           4.680
  22451881.303    22451887.875   120186735.168    93478585.894    22451880.860
  22451887.894          45.680          43.620
  20747729.688    20747736.807   111103179.438    86413642.821    20747730.493
  20747736.539          51.120          48.500
  22452545.332    22452551.237   120021758.332    93350287.108    22452545.945
  22452552.104          47.560          43.810
  22899450.939    22899456.081   122281780.437    95108089.019    22899450.639
  22899455.916          45.870          42.120
  22445732.250    22445737.760   119943233.504    93289196.926    22445732.366
  22445737.026          46.060          42.430
  20794599.609    20794606.012   111237109.743    86517804.909    20794599.712
  20794605.659          40.000          45.000
  20098361.405    20098369.797   107474914.817    83591704.045    20098362.192
  20098369.345          41.250          50.060
 21 04 28 22 00 08.0000000  0 17G02G03G04G06G09G12G17G19G25G28R03R04
                                R05R09R11R19R20
  21541449.864                   113201134.5924   88208685.3854   21541448.773
  21541447.480          50.500          44.430
  24889057.627    24889062.957   130792909.8914  101916570.3804   24889057.346
  24889064.021          28.620          17.370
  24517283.846    24517284.320   128839206.8794  100394203.8444   24517283.632
  24517284.700          38.930          20.500
  20358191.747    20358194.827   106983061.9254   83363451.4064   20358191.613
  20358194.250          52.680          50.120
  24353766.031    24353768.977   127979921.0234   99724639.9334   24353765.495
  24353769.178          39.180          35.430
  21451337.664    21451337.002   112727572.1764   87839688.1294   21451337.240
  21451336.917          49.930          42.620
  22457565.166    22457565.268   118015332.7924   91960012.5914   22457564.724
  22457565.273          46.560          36.930
  20789035.398                   109247152.9304   85127643.6854   20789034.120
  20789033.568          49.560          44.430
  23927767.347    23927771.054   125741282.3954   97980232.9404   23927766.615
  23927770.495          39.430          22.060
  24626781.179                   129414593.8144  100842539.2354   24626780.415
  24626783.383          32.060           5.680
  22452333.952    22452341.115   120189160.164    93480471.997    22452333.863
  22452340.914          45.560          43.370
  20747489.240    20747496.323   111101891.886    86412641.394    20747490.014
  20747496.122          51.120          48.560
  22451762.745    22451768.881   120017575.084    93347033.471    22451763.442
  22451769.530          47.560          43.930
  22900235.132    22900240.332   122285968.276    95111346.227    22900234.877
  22900239.997          45.750          41.930
  22445347.990    22445353.330   119941179.642    93287599.471    22445348.200
  22445352.543          46.250          42.370
  20794982.434    20794988.581   111239157.159    86519397.354    20794982.505
  20794988.434          40.060          44.930
  20098112.899    20098121.394   107473586.911    83590671.215    20098114.066
  20098120.978          41.370          50.180
 21 04 28 22 00 09.0000000  0 17G02G03G04G06G09G12G17G19G25G28R03R04
                                R05R09R11R19R20
  21541214.094                   113199895.5694   88207719.9114   21541212.998
  21541211.705          50.430          44.430
  24889725.111    24889731.094   130796417.0834  101919303.2654   24889724.834
  24889731.348          29.120          17.370
  24517103.349    24517103.988   128838258.1944  100393464.6094   24517103.121
  24517104.167          39.000          20.430
  20358310.357    20358313.415   106983685.2704   83363937.1304   20358310.223
  20358312.861          52.620          50.120
  24353332.789    24353336.232   127977645.7104   99722866.9594   24353332.248
  24353336.209          38.930          35.500
  21451118.546    21451117.803   112726421.0334   87838791.1354   21451118.121
  21451117.861          49.930          42.560
  22458018.315    22458018.288   118017713.6934   91961867.8354   22458017.874
  22458018.338          46.500          36.930
  20789378.085                   109248953.3944   85129046.6424   20789376.807
  20789376.184          49.430          44.430
  23927203.654    23927207.097   125738319.9384   97977924.5264   23927202.931
  23927206.708          39.560          22.120
  24627466.840                   129418197.5904  100845347.3434   24627466.089
  24627469.156          31.680           6.000
  22452786.878    22452794.161   120191585.858    93482358.654    22452786.918
  22452794.103          45.430          43.370
  20747249.185    20747255.969   111100605.212    86411640.647    20747249.691
  20747255.907          51.060          48.560
  22450980.416    22450986.491   120013392.092    93343780.036    22450980.926
  22450987.018          47.430          43.680
  22901019.321    22901024.552   122290156.296    95114603.576    22901019.155
  22901024.171          45.810          41.870
  22444964.137    22444969.061   119939126.574    93286002.646    22444964.150
  22444968.301          46.430          42.370
  20795365.567    20795371.397   111241204.851    86520989.987    20795365.388
  20795371.241          40.250          44.870
  20097864.715    20097873.053   107472259.309    83589638.635    20097865.703
  20097872.722          41.430          50.180
 21 04 28 22 00 10.0000000  0 17G02G03G04G06G09G12G17G19G25G28R03R04
                                R05R09R11R19R20
  21540978.381                   113198656.8344   88206754.6644   21540977.286
  21540975.988          50.500          44.430
  24890392.827    24890398.680   130799924.4624  101922036.2854   24890392.564
  24890398.796          29.250          17.060
  24516922.991    24516923.813   128837310.0294  100392725.7794   24516922.755
  24516923.706          38.930          20.430
  20358429.101    20358432.060   106984309.0074   83364423.1594   20358428.962
  20358431.550          52.680          50.120
  24352899.694    24352903.504   127975370.7394   99721094.2534   24352899.153
  24352903.298          39.120          35.500
  21450899.744    21450898.935   112725270.5664   87837894.6684   21450899.325
  21450898.935          50.000          42.620
  22458471.515    22458471.309   118020094.8554   91963723.2854   22458471.072
  22458471.456          46.500          36.930
  20789720.871                   109250754.2754   85130449.9274   20789719.597
  20789718.885          49.370          44.430
  23926640.123    23926643.588   125735357.8824   97975616.4254   23926639.395
  23926643.020          39.680          22.120
  24628152.438                   129421801.4974  100848155.5464   24628151.723
  24628154.964          31.750           5.560
  22453239.965    22453247.575   120194012.278    93484245.869    22453240.131
  22453247.410          45.370          43.500
  20747009.023    20747015.731   111099319.390    86410640.566    20747009.560
  20747015.848          51.000          48.500
  22450198.106    22450203.993   120009209.358    93340526.799    22450198.396
  22450204.516          47.310          43.750
  22901803.464    22901808.973   122294344.509    95117861.067    22901803.491
  22901808.427          45.870          42.000
  22444580.494    22444584.658   119937074.277    93284406.409    22444580.297
  22444584.162          46.370          42.370
  20795748.418    20795754.052   111243252.789    86522582.825    20795748.217
  20795754.056          40.180          45.060
  20097616.791    20097624.807   107470932.015    83588606.304    20097617.510
  20097624.471          41.370          50.180
 21 04 28 22 00 11.0000000  0 17G02G03G04G06G09G12G17G19G25G28R03R04
                                R05R09R11R19R20
  21540742.677                   113197418.3914   88205789.6444   21540741.582
  21540740.316          50.500          44.500
  24891060.467    24891066.164   130803432.0664  101924769.4844   24891060.213
  24891066.302          29.180          16.750
  24516742.923    24516743.491   128836362.4284  100391987.3884   24516742.673
  24516743.459          39.060          20.310
  20358547.889    20358550.795   106984933.1314   83364909.4894   20358547.755
  20358550.312          52.750          50.120
  24352466.389    24352470.771   127973096.1114   99719321.8174   24352465.840
  24352470.445          38.680          35.560
  21450681.087    21450680.111   112724120.7714   87836998.7234   21450680.662
  21450680.138          50.060          42.560
  22458924.811    22458924.485   118022476.2924   91965578.9484   22458924.370
  22458924.628          46.500          36.870
  20790063.674                   109252555.5734   85131853.5354   20790062.396
  20790061.657          49.370          44.430
  23926076.265    23926080.311   125732396.2374   97973308.6514   23926075.537
  23926079.453          39.680          22.120
  24628838.613                   129425405.4394  100850963.7994   24628837.929
  24628840.763          31.680           5.560
  22453693.383    22453700.997   120196439.448    93486133.655    22453693.531
  22453700.837          45.180          43.560
  20746768.924    20746775.556   111098034.432    86409641.153    20746769.577
  20746775.873          50.930          48.430
  22449415.684    22449421.669   120005026.903    93337273.783    22449415.943
  22449422.044          47.370          43.750
  22902587.800    22902593.246   122298532.888    95121118.692    22902587.903
  22902592.786          45.930          41.930
  22444196.717    22444200.336   119935022.759    93282810.797    22444196.574
  22444200.228          46.430          42.060
  20796131.359    20796136.935   111245300.983    86524175.869    20796131.158
  20796136.921          40.250          45.000
  20097369.049    20097376.748   107469605.049    83587574.222    20097369.349
  20097376.296          41.370          50.180
 21 04 28 22 00 12.0000000  0 17G02G03G04G06G09G12G17G19G25G28R03R04
                                R05R09R11R19R20
  21540507.018                   113196180.2444   88204824.8554   21540505.923
  21540504.688          50.500          44.500
  24891728.299    24891733.151   130806939.8664  101927502.8264   24891728.040
  24891733.915          28.930          16.680
  24516562.797    24516563.535   128835415.3824  100391249.4364   24516562.543
  24516563.311          39.120          20.120
  20358666.794    20358669.598   106985557.6504   83365396.1274   20358666.660
  20358669.146          52.810          50.120
  24352033.380    24352038.088   127970821.8404   99717549.6594   24352032.830
  24352037.659          38.680          35.620
  21450462.478    21450461.583   112722971.6514   87836103.3054   21450462.058
  21450461.480          50.060          42.620
  22459377.939    22459377.778   118024857.9954   91967434.8214   22459377.497
  22459377.845          46.560          36.810
  20790406.487                   109254357.2994   85133257.4764   20790405.209
  20790404.514          49.430          44.430
  23925512.844    23925516.963   125729434.9874   97971001.1804   23925512.117
  23925515.894          39.810          22.060
  24629524.480                   129429009.4294  100853772.1224   24629523.827
  24629526.559          31.750           5.870
  22454147.030    22454154.380   120198867.369    93488022.032    22454146.998
  22454154.344          45.310          43.750
  20746529.187    20746535.792   111096750.336    86408642.413    20746529.773
  20746536.132          50.930          48.620
  22448633.248    22448639.367   120000844.721    93334020.980    22448633.458
  22448639.609          47.250          43.810
  22903372.149    22903377.765   122302721.458    95124376.462    22903372.418
  22903377.108          45.930          42.120
  22443813.164    22443816.518   119932972.026    93281215.781    22443812.873
  22443816.527          46.250          42.310
  20796514.447    20796519.902   111247349.437    86525769.104    20796513.995
  20796519.848          40.430          45.000
  20097120.897    20097128.837   107468278.424    83586542.396    20097121.241
  20097128.202          41.310          50.120
 21 04 28 22 00 13.0000000  0 17G02G03G04G06G09G12G17G19G25G28R03R04
                                R05R09R11R19R20
  21540271.480                   113194942.3864   88203860.2894   21540270.389
  21540269.132          50.500          44.560
  24892395.850    24892400.733   130810447.8744  101930236.3334   24892395.596
  24892401.417          28.930          17.000
  24516382.698    24516383.691   128834468.8754  100390511.8964   24516382.439
  24516383.176          39.180          20.180
  20358785.761    20358788.534   106986182.5534   83365883.0634   20358785.623
  20358788.055          52.810          50.120
  24351600.384    24351605.418   127968547.9064   99715777.7674   24351599.839
  24351604.953          38.500          35.680
  21450243.968    21450243.180   112721823.2024   87835208.4094   21450243.548
  21450242.930          49.930          42.620
  22459831.179    22459831.133   118027239.9684   91969290.9024   22459830.736
  22459831.120          46.560          36.930
  20790749.379                   109256159.4304   85134661.7344   20790748.102
  20790747.452          49.370          44.430
  23924949.541    23924953.100   125726474.1434   97968694.0224   23924948.813
  23924952.412          39.930          21.870
  24630210.426                   129432613.4734  100856580.4904   24630209.787
  24630212.420          31.810           6.750
  22454600.693    22454607.914   120201296.010    93489910.974    22454600.662
  22454608.080          45.310          43.620
  20746289.526    20746296.221   111095467.127    86407644.364    20746290.130
  20746296.520          51.000          48.680
  22447850.759    22447856.977   119996662.804    93330768.368    22447851.027
  22447857.276          47.060          43.750
  22904156.526    22904162.084   122306910.202    95127634.375    22904156.933
  22904161.543          45.870          41.680
  22443429.409    22443432.643   119930922.077    93279621.380    22443429.319
  22443432.862          46.250          42.250
  20796897.719    20796902.861   111249398.150    86527362.547    20796896.995
  20796902.914          40.500          44.750
  20096872.740    20096880.930   107466952.122    83585510.830    20096873.151
  20096880.170          41.430          50.250
 21 04 28 22 00 14.0000000  0 17G02G03G04G06G09G12G17G19G25G28R03R04
                                R05R09R11R19R20
  21540036.018                   113193704.8264   88202895.9574   21540034.927
  21540033.625          50.560          44.620
  24893063.311    24893068.136   130813956.1254  101932970.0314   24893063.057
  24893069.034          28.620          17.000
  24516202.863    24516203.784   128833522.9184  100389774.7944   24516202.600
  24516203.126          39.180          20.120
  20358904.819    20358907.488   106986807.8524   83366370.3104   20358904.685
  20358907.041          52.870          50.180
  24351167.781    24351172.870   127966274.3094   99714006.1364   24351167.231
  24351172.306          38.430          35.870
  21450025.484    21450025.019   112720675.4244   87834314.0364   21450025.064
  21450024.518          49.870          42.620
  22460284.413    22460284.516   118029622.2124   91971147.1944   22460283.966
  22460284.440          46.500          37.000
  20791092.340                   109257961.9984   85136066.3314   20791091.061
  20791090.474          49.370          44.500
  23924386.439    23924389.622   125723513.6874   97966387.1804   23924385.702
  23924388.933          39.930          21.870
  24630896.717                   129436217.5384  100859388.8394   24630896.079
  24630898.283          31.500           7.120
  22455054.594    22455061.797   120203725.368    93491800.472    22455054.568
  22455061.922          45.370          43.500
  20746050.128    20746056.832   111094184.834    86406647.023    20746050.670
  20746057.042          51.060          48.560
  22447068.439    22447074.796   119992481.125    93327515.962    22447068.695
  22447075.006          46.810          43.810
  22904940.875    22904946.393   122311099.131    95130892.433    22904941.533
  22904945.941          45.810          42.120
  22443045.672    22443049.197   119928872.910    93278027.576    22443045.922
  22443049.465          46.250          42.000
  20797280.991    20797285.846   111251447.115    86528956.180    20797280.087
  20797286.038          40.370          45.060
  20096625.083    20096632.911   107465626.144    83584479.507    20096625.164
  20096632.138          41.500          50.060
 21 04 28 22 00 15.0000000  0 17G02G03G04G06G09G12G17G19G25G28R03R04
                                R05R09R11R19R20
  21539800.672                   113192467.5624   88201931.8554   21539799.581
  21539798.176          50.560          44.620
  24893730.830    24893736.483   130817464.5684  101935703.8814   24893730.576
  24893736.679          29.500          17.120
  24516023.260    24516023.667   128832577.5114  100389038.1144   24516022.988
  24516023.161          39.180          19.930
  20359023.934    20359026.558   106987433.5494   83366857.8654   20359023.800
  20359026.098          52.810          50.250
  24350735.152    24350740.142   127964001.0934   99712234.8044   24350734.607
  24350739.748          38.560          35.870
  21449807.050    21449806.737   112719528.3194   87833420.1884   21449806.626
  21449806.222          49.750          42.750
  22460737.675    22460737.938   118032004.7264   91973003.6964   22460737.227
  22460737.804          46.370          37.000
  20791435.411                   109259764.9784   85137471.2524   20791434.133
  20791433.573          49.250          44.620
  23923823.054    23923826.121   125720553.6484   97964080.6594   23923822.321
  23923825.558          39.810          21.750
  24631582.262                   129439821.6754  100862197.2284   24631581.628
  24631584.135          31.500           7.750
  22455508.705    22455515.663   120206155.421    93493690.509    22455508.540
  22455515.837          45.430          43.810
  20745810.901    20745817.632   111092903.399    86405650.350    20745811.358
  20745817.699          51.120          48.500
  22446286.102    22446292.418   119988299.697    93324263.739    22446286.313
  22446292.767          46.620          43.810
  22905725.386    22905730.778   122315288.245    95134150.632    22905726.065
  22905730.474          45.870          41.750
  22442662.087    22442665.948   119926824.524    93276434.390    22442662.602
  22442666.189          46.250          42.120
  20797663.891    20797668.988   111253496.331    86530550.019    20797663.118
  20797669.203          40.310          45.060
  20096377.078    20096384.969   107464300.457    83583448.425    20096377.275
  20096384.155          41.370          50.120
 21 04 28 22 00 16.0000000  0 17G02G03G04G06G09G12G17G19G25G28R03R04
                                R05R09R11R19R20
  21539565.389                   113191230.5884   88200967.9804   21539564.297
  21539562.785          50.620          44.750
  24894398.390    24894404.104   130820973.2304  101938437.9014   24894398.136
  24894404.351          28.750          17.180
  24515843.340    24515843.854   128831632.6484  100388301.8664   24515843.054
  24515843.389          39.310          20.000
  20359143.093    20359145.713   106988059.6354   83367345.7234   20359142.959
  20359145.235          52.810          50.370
  24350302.715    24350307.566   127961728.2094   99710463.7294   24350302.174
  24350307.248          38.750          36.060
  21449588.834    21449588.463   112718381.8874   87832526.8654   21449588.414
  21449588.056          49.680          42.870
  22461191.061    22461191.464   118034387.5084   91974860.4084   22461190.614
  22461191.226          46.310          37.120
  20791778.501                   109261568.3854   85138876.5044   20791777.223
  20791776.748          49.310          44.680
  23923259.688    23923262.952   125717594.0074   97961774.4534   23923258.951
  23923262.277          39.680          21.870
  24632268.209                   129443425.8804  100865005.6644   24632267.579
  24632270.001          30.810           8.000
  22455963.009    22455969.725   120208586.178    93495581.099    22455962.736
  22455969.939          45.370          43.750
  20745571.880    20745578.520   111091622.828    86404654.353    20745572.251
  20745578.588          51.180          48.560
  22445503.797    22445510.340   119984118.526    93321011.723    22445503.971
  22445510.667          46.500          43.870
  22906509.874    22906515.101   122319477.506    95137408.938    22906510.527
  22906515.096          45.930          42.060
  22442278.659    22442282.609   119924776.901    93274841.788    22442279.487
  22442282.949          46.250          42.180
  20798046.671    20798052.197   111255545.818    86532144.062    20798046.157
  20798052.340          40.060          45.250
  20096129.184    20096137.053   107462975.098    83582417.595    20096129.529
  20096136.266          41.370          50.120
 21 04 28 22 00 17.0000000  0 17G02G03G04G06G09G12G17G19G25G28R03R04
                                R05R09R11R19R20
  21539330.092                   113189993.9024   88200004.3294   21539329.000
  21539327.453          50.560          44.750
  24895066.656    24895071.910   130824482.1054  101941172.0894   24895066.411
  24895071.995          28.560          16.500
  24515663.907    24515664.139   128830688.3364  100387566.0424   24515663.612
  24515663.585          39.370          20.120
  20359262.338    20359264.967   106988686.1134   83367833.8874   20359262.204
  20359264.444          52.750          50.370
  24349870.380    24349875.066   127959455.6704   99708692.9224   24349869.844
  24349874.825          38.810          36.060
  21449370.713    21449370.324   112717236.1244   87831634.0634   21449370.290
  21449370.024          49.620          42.870
  22461644.457    22461645.078   118036770.5584   91976717.3294   22461644.010
  22461644.707          46.310          37.060
  20792121.738                   109263372.2054   85140282.0784   20792120.461
  20792120.003          49.180          44.680
  23922696.599    23922699.773   125714634.7694   97959468.5554   23922695.848
  23922699.152          39.810          21.870
  24632954.026                   129447030.0994  100867814.1454   24632953.396
  24632955.877          31.810           8.680
  22456417.312    22456423.943   120211017.666    93497472.235    22456417.040
  22456424.149          45.370          43.680
  20745333.068    20745339.525   111090343.111    86403659.016    20745333.341
  20745339.566          51.310          48.560
  22444721.486    22444728.513   119979937.638    93317759.926    22444721.849
  22444728.634          46.500          43.680
  22907294.465    22907299.517   122323666.956    95140667.406    22907295.095
  22907299.727          45.930          41.620
  22441895.490    22441899.753   119922730.090    93273249.828    22441896.389
  22441899.914          46.310          42.120
  20798429.308    20798435.304   111257595.558    86533738.305    20798429.388
  20798435.568          40.060          44.930
  20095881.251    20095889.352   107461650.052    83581387.003    20095881.658
  20095888.436          41.370          50.060
 21 04 28 22 00 18.0000000  0 17G02G03G04G06G09G12G17G19G25G28R03R04
                                R05R09R11R19R20
  21539094.866                   113188757.5134   88199040.9094   21539093.775
  21539092.174          50.430          44.750
  24895734.985    24895739.801   130827991.2044  101943906.4604   24895734.731
  24895739.707          28.930          16.560
  24515484.309    24515484.492   128829744.5654  100386830.6464   24515484.001
  24515483.942          39.560          20.060
  20359381.663    20359384.301   106989312.9814   83368322.3564   20359381.530
  20359383.729          52.680          50.370
  24349438.256    24349442.758   127957183.4704   99706922.3784   24349437.720
  24349442.454          39.250          36.120
  21449152.744    21449152.381   112716091.0384   87830741.7874   21449152.324
  21449152.122          49.500          42.870
  22462097.929    22462098.630   118039153.8794   91978574.4614   22462097.487
  22462098.233          46.180          37.060
  20792465.074                   109265176.4534   85141687.9864   20792463.796
  20792463.334          49.250          44.620
  23922133.398    23922136.523   125711675.9154   97957162.9544   23922132.643
  23922136.031          39.560          21.870
  24633639.835                   129450634.4184  100870622.6944   24633639.214
  24633641.757          31.620           7.750
  22456871.661    22456878.363   120213449.871    93499363.948    22456871.459
  22456878.488          45.370          43.560
  20745094.436    20745100.746   111089064.276    86402664.369    20745094.538
  20745100.728          51.370          48.560
  22443939.091    22443946.292   119975757.039    93314508.354    22443939.726
  22443946.538          46.370          44.000
  22908079.194    22908084.220   122327856.599    95143926.023    22908079.780
  22908084.305          46.060          42.000
  22441512.625    22441517.031   119920684.054    93271658.461    22441513.542
  22441517.053          46.180          41.930
  20798812.361    20798818.517   111259645.550    86535332.756    20798812.687
  20798818.803          40.060          44.870
  20095633.295    20095641.548   107460325.333    83580356.661    20095633.876
  20095640.689          41.430          50.120
 21 04 28 22 00 19.0000000  0 17G02G03G04G06G09G12G17G19G25G28R03R04
                                R05R09R11R19R20
  21538859.650                   113187521.4154   88198077.7174   21538858.559
  21538856.953          50.430          44.750
  24896402.589    24896407.346   130831500.4934  101946640.9714   24896402.330
  24896407.472          28.370          16.430
  24515304.675    24515304.979   128828801.3504  100386095.6744   24515304.362
  24515304.420          39.500          20.180
  20359500.953    20359503.685   106989940.2394   83368811.1284   20359500.819
  20359503.085          52.620          50.370
  24349006.319    24349009.852   127954911.6234   99705152.1084   24349005.788
  24349010.138          39.250          36.180
  21448934.927    21448934.641   112714946.6234   87829850.0344   21448934.503
  21448934.345          49.500          42.870
  22462551.418    22462552.192   118041537.4694   91980431.8044   22462550.971
  22462551.803          46.120          37.060
  20792808.503                   109266981.1114   85143094.2134   20792807.226
  20792806.746          49.250          44.620
  23921570.434    23921573.407   125708717.4914   97954857.6884   23921569.683
  23921573.027          39.560          21.750
  24634325.808                   129454238.7524  100873431.3114   24634325.178
  24634327.664          31.180           7.500
  22457326.375    22457332.975   120215882.799    93501256.238    22457326.044
  22457332.943          45.370          43.500
  20744855.843    20744862.144   111087786.332    86401670.411    20744855.901
  20744862.010          51.430          48.680
  22443157.098    22443164.679   119971576.710    93311256.990    22443157.612
  22443164.510          46.430          43.870
  22908863.919    22908868.672   122332046.409    95147184.753    22908864.429
  22908869.003          46.060          41.930
  22441129.962    22441134.524   119918638.798    93270067.703    22441130.727
  22441134.238          46.180          42.120
  20799195.954    20799202.044   111261695.823    86536927.394    20799195.999
  20799202.062          40.250          45.060
  20095385.929    20095393.775   107459000.922    83579326.572    20095386.189
  20095393.029          41.620          50.060
 21 04 28 22 00 20.0000000  0 17G02G03G04G06G09G12G17G19G25G28R03R04
                                R05R09R11R19R20
  21538624.411                   113186285.6084   88197114.7504   21538623.320
  21538621.782          50.430          44.750
  24897070.207    24897075.121   130835010.0314  101949375.6844   24897069.957
  24897075.215          29.120          16.620
  24515125.345    24515125.630   128827858.7044  100385361.1414   24515125.015
  24515124.920          39.370          20.120
  20359620.305    20359623.131   106990567.8934   83369300.2094   20359620.171
  20359622.523          52.620          50.370
  24348574.361    24348577.227   127952640.1454   99703382.1244   24348573.829
  24348577.897          39.060          36.250
  21448717.186    21448717.065   112713802.8794   87828958.8064   21448716.766
  21448716.693          49.430          42.870
  22463005.069    22463005.869   118043921.3244   91982289.3554   22463004.622
  22463005.426          46.060          37.060
  20793152.085                   109268786.1944   85144500.7704   20793150.811
  20793150.242          49.250          44.620
  23921007.470    23921010.689   125705759.4674   97952552.7274   23921006.719
  23921010.104          39.430          21.500
  24635011.554                   129457843.1354  100876239.9414   24635010.915
  24635013.574          31.750           8.310
  22457780.947    22457787.560   120218316.451    93503149.071    22457780.849
  22457787.475          45.560          43.120
  20744617.354    20744623.516   111086509.275    86400677.149    20744617.461
  20744623.489          51.370          48.500
  22442375.020    22442382.727   119967396.617    93308005.802    22442375.646
  22442382.592          46.620          43.680
  22909648.823    22909653.590   122336236.405    95150443.644    22909649.109
  22909653.545          46.120          41.930
  22440747.423    22440751.843   119916594.335    93268477.562    22440748.063
  22440751.646          46.180          42.310
  20799578.948    20799585.579   111263746.342    86538522.241    20799579.463
  20799585.364          40.370          44.930
  20095138.322    20095146.012   107457676.839    83578296.724    20095138.501
  20095145.399          41.620          50.060
 21 04 28 22 00 21.0000000  0 17G02G03G04G06G09G12G17G19G25G28R03R04
                                R05R09R11R19R20
  21538389.249                   113185050.0994   88196152.0174   21538388.158
  21538386.673          50.430          44.750
  24897738.084    24897743.597   130838519.7394  101952110.5204   24897737.834
  24897743.078          29.000          16.620
  24514945.854    24514946.090   128826916.5784  100384627.0244   24514945.515
  24514945.594          39.310          20.120
  20359739.729    20359742.679   106991195.9334   83369789.5904   20359739.595
  20359742.027          52.560          50.370
  24348142.219    24348144.932   127950368.9924   99701612.3944   24348141.687
  24348145.715          39.180          36.250
  21448499.646    21448499.494   112712659.8144   87828068.1074   21448499.225
  21448499.180          49.560          42.870
  22463458.823    22463459.708   118046305.4494   91984147.1134   22463458.380
  22463459.095          46.060          37.060
  20793495.729                   109270591.7014   85145907.6594   20793494.452
  20793493.820          49.370          44.620
  23920444.739    23920448.178   125702801.8274   97950248.0754   23920443.984
  23920447.247          39.310          21.250
  24635697.098                   129461447.5634  100879048.5574   24635696.472
  24635699.450          31.620           8.180
  22458235.805    22458242.261   120220750.801    93505042.454    22458235.684
  22458242.181          45.810          43.060
  20744379.034    20744385.067   111085233.095    86399684.566    20744379.195
  20744385.085          51.430          48.680
  22441593.175    22441601.029   119963216.769    93304754.815    22441593.738
  22441600.689          46.750          44.000
  22910433.781    22910438.457   122340426.562    95153702.646    22910433.803
  22910438.207          46.060          41.870
  22440364.773    22440369.407   119914550.652    93266888.028    22440365.502
  22440369.184          46.310          42.060
  20799962.471    20799969.106   111265797.123    86540117.298    20799962.958
  20799968.708          40.310          44.870
  20094890.786    20094898.387   107456353.089    83577267.134    20094891.006
  20094897.819          41.620          50.060
 21 04 28 22 00 22.0000000  0 17G02G03G04G06G09G12G17G19G25G28R03R04
                                R05R09R11R19R20
  21538154.145                   113183814.8834   88195189.5124   21538153.058
  21538151.618          50.430          44.750
  24898405.858    24898411.496   130842029.6714  101954845.5454   24898405.613
  24898410.942          29.120          16.500
  24514766.403    24514766.814   128825975.0214  100383893.3494   24514766.059
  24514766.380          39.430          19.870
  20359859.269    20359862.215   106991824.3714   83370279.2834   20359859.135
  20359861.611          52.620          50.370
  24347710.122    24347713.019   127948098.1934   99699842.9384   24347709.589
  24347713.600          38.870          36.310
  21448282.235    21448282.217   112711517.4224   87827177.9304   21448281.820
  21448281.783          49.560          42.870
  22463912.553    22463913.246   118048689.8524   91986005.0904   22463912.107
  22463912.821          46.120          37.060
  20793839.589                   109272397.6344   85147314.8794   20793838.310
  20793837.482          49.310          44.620
  23919882.016    23919884.668   125699844.6214   97947943.7594   23919881.262
  23919884.368          39.120          21.180
  24636382.486                   129465052.0734  100881857.2194   24636381.838
  24636385.357          31.180           8.000
  22458690.797    22458697.240   120223185.871    93506936.391    22458690.703
  22458697.030          46.060          43.430
  20744140.826    20744146.684   111083957.781    86398692.660    20744141.041
  20744146.886          51.430          48.560
  22440811.432    22440819.233   119959037.197    93301504.036    22440811.880
  22440818.853          46.930          43.680
  22911218.394    22911222.959   122344616.922    95156961.816    22911218.505
  22911222.874          46.120          42.000
  22439982.575    22439986.953   119912507.751    93265299.113    22439983.179
  22439986.860          46.180          42.180
  20800346.619    20800352.552   111267848.193    86541712.564    20800346.386
  20800352.194          40.430          45.000
  20094643.251    20094650.811   107455029.665    83576237.806    20094643.488
  20094650.368          41.680          50.120
 21 04 28 22 00 23.0000000  0 17G02G03G04G06G09G12G17G19G25G28R03R04
                                R05R09R11R19R20
  21537919.116                   113182579.9734   88194227.2454   21537918.025
  21537916.625          50.430          44.750
  24899073.458    24899079.030   130845539.8134  101957580.6944   24899073.208
  24899078.770          29.310          16.370
  24514587.266    24514587.931   128825034.0154  100383160.1064   24514586.908
  24514587.328          39.370          19.750
  20359978.880    20359981.871   106992453.2014   83370769.2794   20359978.746
  20359981.267          52.680          50.370
  24347278.020    24347281.154   127945827.7434   99698073.7574   24347277.492
  24347281.560          38.810          36.180
  21448065.048    21448065.089   112710375.7064   87826288.2804   21448064.634
  21448064.521          49.680          42.870
  22464366.338    22464367.161   118051074.5234   91987863.2734   22464365.896
  22464366.615          46.250          37.060
  20794183.371                   109274203.9854   85148722.4274   20794182.097
  20794181.215          49.430          44.620
  23919319.191    23919321.776   125696887.8004   97945639.7544   23919318.436
  23919321.552          39.060          21.000
  24637068.487                   129468656.6604  100884666.0014   24637067.830
  24637071.290          31.060           7.370
  22459145.892    22459152.120   120225621.668    93508830.912    22459145.838
  22459152.057          46.180          43.060
  20743902.860    20743908.633   111082683.346    86397701.430    20743903.075
  20743908.897          51.560          48.560
  22440029.842    22440037.437   119954857.911    93298253.487    22440030.074
  22440037.012          47.120          43.870
  22912003.047    22912007.675   122348807.463    95160221.118    22912003.244
  22912007.518          46.060          42.060
  22439600.533    22439604.965   119910465.624    93263710.799    22439600.895
  22439604.603          46.060          42.250
  20800730.231    20800736.056   111269899.509    86543308.039    20800729.569
  20800735.640          40.250          45.060
  20094396.100    20094403.391   107453706.554    83575208.719    20094396.122
  20094402.985          41.620          50.120
 21 04 28 22 00 24.0000000  0 17G02G03G04G06G09G12G17G19G25G28R03R04
                                R05R09R11R19R20
  21537684.155                   113181345.3724   88193265.2194   21537683.063
  21537681.695          50.430          44.750
  24899741.715    24899746.889   130849050.1764  101960316.0474   24899741.461
  24899746.777          29.310          16.310
  24514408.123    24514408.982   128824093.5634  100382427.2924   24514407.758
  24514408.454          39.180          19.620
  20360098.657    20360101.559   106993082.4234   83371259.5824   20360098.523
  20360101.000          52.680          50.310
  24346845.922    24346849.638   127943557.6404   99696304.8464   24346845.390
  24346849.589          38.680          36.250
  21447848.036    21447847.987   112709234.6634   87825399.1554   21447847.622
  21447847.383          49.750          42.870
  22464820.266    22464821.075   118053459.4604   91989721.6634   22464819.824
  22464820.462          46.310          37.120
  20794527.199                   109276010.7554   85150130.2984   20794525.925
  20794525.034          49.370          44.620
  23918756.563    23918759.742   125693931.3844   97943336.0464   23918755.812
  23918758.771          38.750          21.060
  24637754.219                   129472261.2534  100887474.7944   24637753.567
  24637757.215          31.180           7.120
  22459601.313    22459607.090   120228058.212    93510725.989    22459601.009
  22459607.260          46.430          43.060
  20743665.010    20743670.725   111081409.781    86396710.877    20743665.229
  20743671.047          51.680          48.560
  22439248.341    22439255.444   119950678.922    93295003.161    22439248.359
  22439255.194          47.250          43.930
  22912787.799    22912792.521   122352998.171    95163480.556    22912788.018
  22912792.288          46.120          41.870
  22439218.517    22439223.071   119908424.290    93262123.093    22439218.764
  22439222.610          46.000          42.060
  20801114.275    20801119.610   111271951.084    86544903.709    20801113.202
  20801119.122          40.180          45.060
  20094148.913    20094156.048   107452383.776    83574179.890    20094148.690
  20094155.637          41.750          50.000
 21 04 28 22 00 25.0000000  0 17G02G03G04G06G09G12G17G19G25G28R03R04
                                R05R09R11R19R20
  21537449.287                   113180111.0594   88192303.4174   21537448.196
  21537446.809          50.680          44.810
  24900410.335    24900414.587   130852560.7504  101963051.5584   24900410.085
  24900414.846          29.870          16.120
  24514228.999    24514230.631   128823153.6544  100381694.8894   24514228.624
  24514229.575          39.310          19.560
  20360218.483    20360221.335   106993712.0274   83371750.1824   20360218.345
